[{"adminCode1": "06", "lng": "62.5", "geonameId": 1142263, "toponymName": "Far\u0101h", "countryId": "1149361", "fcl": "A", "population": 470939, "countryCode": "AF", "name": "Farah", "fclName": "country, state, region,...", "adminCodes1": {"ISO3166_2": "FRA"}, "countryName": "Afghanistan", "fcodeName": "first-order administrative division", "adminName1": "Farah", "lat": "32.5", "fcode": "ADM1", "description": "FARAH", "xywh": {"x": 1222, "y": 481, "w": 97, "h": 37}}, {"lng": "78.66211", "geonameId": 7729895, "name": "Southern Asia", "fclName": "parks,area, ...", "toponymName": "Southern Asia", "fcodeName": "region", "adminName1": "", "lat": "21.28937", "fcl": "L", "fcode": "RGN", "population": 1702000000, "description": "SOUTHERN", "xywh": {"x": 2332, "y": 509, "w": 248, "h": 48}}, {"adminCode1": "00", "lng": "53", "geonameId": 130758, "toponymName": "Islamic Republic of Iran", "countryId": "130758", "fcl": "A", "population": 76923300, "countryCode": "IR", "name": "Iran", "fclName": "country, state, region,...", "countryName": "Iran", "fcodeName": "independent political entity", "adminName1": "", "lat": "32", "fcode": "PCLI", "description": "PERSIA", "xywh": {"x": 476, "y": 575, "w": 86, "h": 31}}, {"adminCode1": "00", "lng": "66", "geonameId": 1149361, "toponymName": "Islamic Republic of Afghanistan", "countryId": "1149361", "fcl": "A", "population": 29121286, "countryCode": "AF", "name": "Afghanistan", "fclName": "country, state, region,...", "countryName": "Afghanistan", "fcodeName": "independent political entity", "adminName1": "", "lat": "33", "fcode": "PCLI", "description": "AFGH\u0100NIST\u0100N", "xywh": {"x": 583, "y": 576, "w": 185, "h": 33}}, {"lng": "-68", "geonameId": 3574922, "name": "British West Indies", "fclName": "mountain,hill,rock,... ", "toponymName": "British West Indies", "fcodeName": "islands", "adminName1": "", "lat": "18", "fcl": "T", "fcode": "ISLS", "population": 0, "description": "BRITISH", "xywh": {"x": 815, "y": 580, "w": 99, "h": 31}}, {"adminCode1": "00", "lng": "79", "geonameId": 1269750, "toponymName": "Republic of India", "countryId": "1269750", "fcl": "A", "population": 1173108018, "countryCode": "IN", "name": "India", "fclName": "country, state, region,...", "countryName": "India", "fcodeName": "independent political entity", "adminName1": "", "lat": "22", "fcode": "PCLI", "description": "INDIA", "xywh": {"x": 935, "y": 582, "w": 68, "h": 30}}, {"adminCode1": "51", "lng": "24.75", "geonameId": 728193, "toponymName": "Plovdiv", "countryId": "732800", "fcl": "P", "population": 340494, "countryCode": "BG", "name": "Plovdiv", "fclName": "city, village,...", "adminCodes1": {"ISO3166_2": "16"}, "countryName": "Bulgaria", "fcodeName": "seat of a first-order administrative division", "adminName1": "Plovdiv", "lat": "42.15", "fcode": "PPLA", "description": "4000", "xywh": {"x": 738, "y": 673, "w": 14, "h": 32}}, {"adminCode1": "17", "lng": "12.53463", "geonameId": 2621942, "toponymName": "Frederiksberg", "countryId": "2623032", "fcl": "P", "population": 95029, "countryCode": "DK", "name": "Frederiksberg", "fclName": "city, village,...", "adminCodes1": {"ISO3166_2": "84"}, "countryName": "Denmark", "fcodeName": "seat of a second-order administrative division", "adminName1": "Capital Region", "lat": "55.67938", "fcode": "PPLA2", "description": "2000", "xywh": {"x": 850, "y": 674, "w": 18, "h": 31}}, {"adminCode1": "06", "lng": "62.5", "geonameId": 1142263, "toponymName": "Far\u0101h", "countryId": "1149361", "fcl": "A", "population": 470939, "countryCode": "AF", "name": "Farah", "fclName": "country, state, region,...", "adminCodes1": {"ISO3166_2": "FRA"}, "countryName": "Afghanistan", "fcodeName": "first-order administrative division", "adminName1": "Farah", "lat": "32.5", "fcode": "ADM1", "description": "Farah", "xywh": {"x": 1094, "y": 669, "w": 32, "h": 40}}, {"adminCode1": "00", "lng": "63.45617", "geonameId": 1143311, "toponymName": "Dasht-e Dil\u0101r\u0101m", "countryId": "1149361", "fcl": "T", "population": 0, "countryCode": "AF", "name": "Dasht-e Dil\u0101r\u0101m", "fclName": "mountain,hill,rock,... ", "countryName": "Afghanistan", "fcodeName": "plain(s)", "adminName1": "", "lat": "32.21804", "fcode": "PLN", "description": "Dilaram", "xywh": {"x": 1660, "y": 664, "w": 40, "h": 51}}, {"adminCode1": "BE", "lng": "7.44744", "geonameId": 2661552, "toponymName": "Bern", "countryId": "2658434", "fcl": "P", "population": 121631, "countryCode": "CH", "name": "Bern", "fclName": "city, village,...", "adminCodes1": {"ISO3166_2": "BE"}, "countryName": "Switzerland", "fcodeName": "capital of a political entity", "adminName1": "Bern", "lat": "46.94809", "fcode": "PPLC", "description": "3000", "xywh": {"x": 1795, "y": 685, "w": 16, "h": 29}}, {"adminCode1": "BE", "lng": "7.44744", "geonameId": 2661552, "toponymName": "Bern", "countryId": "2658434", "fcl": "P", "population": 121631, "countryCode": "CH", "name": "Bern", "fclName": "city, village,...", "adminCodes1": {"ISO3166_2": "BE"}, "countryName": "Switzerland", "fcodeName": "capital of a political entity", "adminName1": "Bern", "lat": "46.94809", "fcode": "PPLC", "description": "3000", "xywh": {"x": 2223, "y": 684, "w": 15, "h": 32}}, {"adminCode1": "59", "lng": "25.64194", "geonameId": 726848, "toponymName": "Stara Zagora", "countryId": "732800", "fcl": "P", "population": 143431, "countryCode": "BG", "name": "Stara Zagora", "fclName": "city, village,...", "adminCodes1": {"ISO3166_2": "24"}, "countryName": "Bulgaria", "fcodeName": "seat of a first-order administrative division", "adminName1": "Stara Zagora", "lat": "42.43278", "fcode": "PPLA", "description": "6000", "xywh": {"x": 2338, "y": 684, "w": 14, "h": 31}}, {"adminCode1": "WAL", "lng": "4.86746", "geonameId": 2790471, "toponymName": "Namur", "countryId": "2802361", "fcl": "P", "population": 106284, "countryCode": "BE", "name": "Namur", "fclName": "city, village,...", "adminCodes1": {"ISO3166_2": "WAL"}, "countryName": "Belgium", "fcodeName": "seat of a first-order administrative division", "adminName1": "Wallonia", "lat": "50.4669", "fcode": "PPLA", "description": "5000", "xywh": {"x": 2498, "y": 679, "w": 18, "h": 32}}, {"adminCode1": "41", "lng": "59.22114", "geonameId": 140463, "toponymName": "B\u012brjand", "countryId": "130758", "fcl": "P", "population": 196982, "countryCode": "IR", "name": "Birjand", "fclName": "city, village,...", "adminCodes1": {"ISO3166_2": "29"}, "countryName": "Iran", "fcodeName": "seat of a first-order administrative division", "adminName1": "Khor\u0101s\u0101n-e Jon\u016bb\u012b", "lat": "32.86628", "fcode": "PPLA", "description": "Birjand", "xywh": {"x": 417, "y": 732, "w": 44, "h": 44}}, {"adminCode1": "01", "lng": "9.17702", "geonameId": 2825297, "toponymName": "Stuttgart", "countryId": "2921044", "fcl": "P", "population": 589793, "countryCode": "DE", "name": "Stuttgart", "fclName": "city, village,...", "adminCodes1": {"ISO3166_2": "BW"}, "countryName": "Germany", "fcodeName": "seat of a first-order administrative division", "adminName1": "Baden-W\u00fcrttemberg", "lat": "48.78232", "fcode": "PPLA", "description": "Bade", "xywh": {"x": 981, "y": 732, "w": 32, "h": 16}}, {"adminCode1": "16", "lng": "13.35866", "geonameId": 11153859, "toponymName": "Botanical Garden (c.1801-1899)", "countryId": "2921044", "fcl": "L", "population": 0, "countryCode": "DE", "name": "Botanical Garden (c.1801-1899)", "fclName": "parks,area, ...", "adminCodes1": {"ISO3166_2": "BE"}, "countryName": "Germany", "fcodeName": "park", "adminName1": "Berlin", "lat": "52.49258", "fcode": "PRK", "description": "1899", "xywh": {"x": 1034, "y": 736, "w": 25, "h": 16}}, {"adminCode1": "25", "lng": "78.48023", "geonameId": 1270265, "toponymName": "Har\u016br", "countryId": "1269750", "fcl": "P", "population": 20405, "countryCode": "IN", "name": "Har\u016br", "fclName": "city, village,...", "adminCodes1": {"ISO3166_2": "TN"}, "countryName": "India", "fcodeName": "populated place", "adminName1": "Tamil Nadu", "lat": "12.05267", "fcode": "PPL", "description": "Harur", "xywh": {"x": 899, "y": 741, "w": 32, "h": 55}}, {"adminCode1": "41", "lng": "65.42063", "geonameId": 1477504, "toponymName": "K\u014dh-e Khushk", "countryId": "1149361", "fcl": "T", "population": 0, "countryCode": "AF", "name": "K\u014dh-e Khushk", "fclName": "mountain,hill,rock,... ", "adminCodes1": {"ISO3166_2": "DAY"}, "countryName": "Afghanistan", "fcodeName": "mountain", "adminName1": "Daykundi", "lat": "33.11153", "fcode": "MT", "description": "Khushk", "xywh": {"x": 931, "y": 740, "w": 54, "h": 47}}, {"adminCode1": "10", "lng": "-70.79119", "geonameId": 6018061, "toponymName": "Lac du Raid Harricana", "countryId": "6251999", "fcl": "H", "population": 0, "countryCode": "CA", "name": "Lac du Raid Harricana", "fclName": "stream, lake, ...", "adminCodes1": {"ISO3166_2": "QC"}, "countryName": "Canada", "fcodeName": "lake", "adminName1": "Quebec", "lat": "48.82643", "fcode": "LK", "description": "Raid", "xywh": {"x": 977, "y": 722, "w": 33, "h": 32}}, {"adminCode1": "11", "lng": "56.453", "geonameId": 131261, "toponymName": "Hom\u0101k", "countryId": "130758", "fcl": "P", "population": 0, "countryCode": "IR", "name": "Hom\u0101k", "fclName": "city, village,...", "adminCodes1": {"ISO3166_2": "23"}, "countryName": "Iran", "fcodeName": "populated place", "adminName1": "Hormozgan", "lat": "27.9017", "fcode": "PPL", "description": "HMAK", "xywh": {"x": 2326, "y": 758, "w": 48, "h": 38}}, {"adminCode1": "00", "lng": "0.35996", "geonameId": 2300441, "toponymName": "Have Tsebi", "countryId": "2300660", "fcl": "P", "population": 0, "countryCode": "GH", "name": "Have Tsebi", "fclName": "city, village,...", "countryName": "Ghana", "fcodeName": "populated place", "adminName1": "", "lat": "6.7589", "fcode": "PPL", "description": "Have", "xywh": {"x": 1002, "y": 773, "w": 36, "h": 35}}, {"adminCode1": "04", "lng": "61.2", "geonameId": 1482481, "toponymName": "Shahrest\u0101n-e Kh\u0101sh", "countryId": "130758", "fcl": "A", "population": 173821, "countryCode": "IR", "name": "Shahrest\u0101n-e Kh\u0101sh", "fclName": "country, state, region,...", "adminCodes1": {"ISO3166_2": "13"}, "countryName": "Iran", "fcodeName": "second-order administrative division", "adminName1": "Sistan and Baluchestan", "lat": "28.21667", "fcode": "ADM2", "description": "Khash", "xywh": {"x": 1563, "y": 818, "w": 46, "h": 52}}, {"adminCode1": "09", "lng": "64.76806", "geonameId": 1127656, "toponymName": "Pushtah-ye Sangb\u0101r", "countryId": "1149361", "fcl": "T", "population": 0, "countryCode": "AF", "name": "Pushtah-ye Sangb\u0101r", "fclName": "mountain,hill,rock,... ", "adminCodes1": {"ISO3166_2": "GHO"}, "countryName": "Afghanistan", "fcodeName": "mountain", "adminName1": "Ghowr", "lat": "34.3513", "fcode": "MT", "description": "Sangbar", "xywh": {"x": 2213, "y": 832, "w": 53, "h": 23}}, {"adminCode1": "06", "lng": "61.58421", "geonameId": 1438740, "toponymName": "L\u0101sh-e Jowayn", "countryId": "1149361", "fcl": "L", "population": 0, "countryCode": "AF", "name": "L\u0101sh-e Jowayn", "fclName": "parks,area, ...", "adminCodes1": {"ISO3166_2": "FRA"}, "countryName": "Afghanistan", "fcodeName": "locality", "adminName1": "Farah", "lat": "31.7137", "fcode": "LCTY", "description": "Lash", "xywh": {"x": 989, "y": 843, "w": 39, "h": 23}}, {"adminCode1": "52", "lng": "-1.55336", "geonameId": 2990969, "toponymName": "Nantes", "countryId": "3017382", "fcl": "P", "population": 277269, "countryCode": "FR", "name": "Nantes", "fclName": "city, village,...", "adminCodes1": {"ISO3166_2": "PDL"}, "countryName": "France", "fcodeName": "seat of a first-order administrative division", "adminName1": "Pays de la Loire", "lat": "47.21725", "fcode": "PPLA", "description": "44978", "xywh": {"x": 2368, "y": 832, "w": 33, "h": 19}}, {"adminCode1": "16", "lng": "168.15", "geonameId": 2135634, "toponymName": "N\u00e9ha", "countryId": "2134431", "fcl": "P", "population": 0, "countryCode": "VU", "name": "N\u00e9ha", "fclName": "city, village,...", "adminCodes1": {"ISO3166_2": "MAP"}, "countryName": "Vanuatu", "fcodeName": "populated place", "adminName1": "Malampa", "lat": "-16.13333", "fcode": "PPL", "description": "NEHA", "xywh": {"x": 425, "y": 865, "w": 36, "h": 30}}, {"adminCode1": "29", "lng": "55.388", "geonameId": 68836, "toponymName": "Ch\u0101h \u2018Arab\u016byeh", "countryId": "130758", "fcl": "L", "population": 0, "countryCode": "IR", "name": "Ch\u0101h \u2018Arab\u016byeh", "fclName": "parks,area, ...", "adminCodes1": {"ISO3166_2": "15"}, "countryName": "Iran", "fcodeName": "area", "adminName1": "Kerman", "lat": "28.6854", "fcode": "AREA", "description": "Ch\u00e2h", "xywh": {"x": 1563, "y": 872, "w": 38, "h": 40}}, {"adminCode1": "23", "lng": "7.7227", "geonameId": 2317765, "toponymName": "Zaria", "countryId": "2328926", "fcl": "P", "population": 975153, "countryCode": "NG", "name": "Zaria", "fclName": "city, village,...", "adminCodes1": {"ISO3166_2": "KD"}, "countryName": "Nigeria", "fcodeName": "populated place", "adminName1": "Kaduna", "lat": "11.11128", "fcode": "PPL", "description": "Gari", "xywh": {"x": 1501, "y": 875, "w": 37, "h": 40}}, {"adminCode1": "29", "lng": "55.388", "geonameId": 68836, "toponymName": "Ch\u0101h \u2018Arab\u016byeh", "countryId": "130758", "fcl": "L", "population": 0, "countryCode": "IR", "name": "Ch\u0101h \u2018Arab\u016byeh", "fclName": "parks,area, ...", "adminCodes1": {"ISO3166_2": "15"}, "countryName": "Iran", "fcodeName": "area", "adminName1": "Kerman", "lat": "28.6854", "fcode": "AREA", "description": "Chah", "xywh": {"x": 1867, "y": 856, "w": 37, "h": 40}}, {"adminCode1": "28", "lng": "50.5881", "geonameId": 6856596, "toponymName": "Nes\u0101\u2018 Boland", "countryId": "130758", "fcl": "L", "population": 0, "countryCode": "IR", "name": "Nes\u0101\u2018 Boland", "fclName": "parks,area, ...", "adminCodes1": {"ISO3166_2": "04"}, "countryName": "Iran", "fcodeName": "locality", "adminName1": "Isfahan", "lat": "33.1433", "fcode": "LCTY", "description": "Boland", "xywh": {"x": 1979, "y": 886, "w": 50, "h": 29}}, {"adminCode1": "41", "lng": "25.33417", "geonameId": 731549, "toponymName": "Gabrovo", "countryId": "732800", "fcl": "P", "population": 66175, "countryCode": "BG", "name": "Gabrovo", "fclName": "city, village,...", "adminCodes1": {"ISO3166_2": "07"}, "countryName": "Bulgaria", "fcodeName": "seat of a first-order administrative division", "adminName1": "Gabrovo", "lat": "42.87472", "fcode": "PPLA", "description": "5300", "xywh": {"x": 538, "y": 909, "w": 32, "h": 23}}, {"adminCode1": "16", "lng": "45.6472", "geonameId": 3198, "toponymName": "\u0100nj\u012bneh-ye Re\u1e95\u0101", "countryId": "130758", "fcl": "P", "population": 0, "countryCode": "IR", "name": "\u0100nj\u012bneh-ye Re\u1e95\u0101", "fclName": "city, village,...", "adminCodes1": {"ISO3166_2": "16"}, "countryName": "Iran", "fcodeName": "populated place", "adminName1": "Kordest\u0101n", "lat": "35.9721", "fcode": "PPL", "description": "Anjineh", "xywh": {"x": 600, "y": 903, "w": 47, "h": 24}}, {"adminCode1": "63", "lng": "115.28472", "geonameId": 2019621, "toponymName": "Mur\u2019ya", "countryId": "2017370", "fcl": "P", "population": 0, "countryCode": "RU", "name": "Mur'ya", "fclName": "city, village,...", "adminCodes1": {"ISO3166_2": "SA"}, "countryName": "Russia", "fcodeName": "populated place", "adminName1": "Sakha", "lat": "60.73611", "fcode": "PPL", "description": "Murja", "xywh": {"x": 1866, "y": 913, "w": 35, "h": 43}}, {"adminCode1": "57", "lng": "-6.56416", "geonameId": 2517744, "toponymName": "Feria", "countryId": "2510769", "fcl": "P", "population": 1383, "countryCode": "ES", "name": "Feria", "fclName": "city, village,...", "adminCodes1": {"ISO3166_2": "EX"}, "countryName": "Spain", "fcodeName": "seat of a third-order administrative division", "adminName1": "Extremadura", "lat": "38.51151", "fcode": "PPLA3", "description": "feria", "xywh": {"x": 97, "y": 939, "w": 45, "h": 50}}, {"adminCode1": "05", "lng": "69.15728", "geonameId": 11372904, "toponymName": "Goth Alahad", "countryId": "1168579", "fcl": "P", "population": 0, "countryCode": "PK", "name": "Goth Alahad", "fclName": "city, village,...", "adminCodes1": {"ISO3166_2": "SD"}, "countryName": "Pakistan", "fcodeName": "populated place", "adminName1": "Sindh", "lat": "27.65618", "fcode": "PPL", "description": "Alahad", "xywh": {"x": 564, "y": 992, "w": 48, "h": 26}}, {"adminCode1": "41", "lng": "57.75807", "geonameId": 66110, "toponymName": "Daqq-e Shand-e \u2018Al\u012bre\u1e95\u0101kh\u0101n", "countryId": "130758", "fcl": "L", "population": 0, "countryCode": "IR", "name": "Daqq-e Shand-e \u2018Al\u012bre\u1e95\u0101kh\u0101n", "fclName": "parks,area, ...", "adminCodes1": {"ISO3166_2": "29"}, "countryName": "Iran", "fcodeName": "salt area", "adminName1": "Khor\u0101s\u0101n-e Jon\u016bb\u012b", "lat": "32.34902", "fcode": "SALT", "description": "Shand", "xywh": {"x": 1591, "y": 966, "w": 41, "h": 43}}, {"adminCode1": "29", "lng": "57.18526", "geonameId": 130303, "toponymName": "Jark", "countryId": "130758", "fcl": "P", "population": 0, "countryCode": "IR", "name": "Jark", "fclName": "city, village,...", "adminCodes1": {"ISO3166_2": "15"}, "countryName": "Iran", "fcodeName": "populated place", "adminName1": "Kerman", "lat": "30.6681", "fcode": "PPL", "description": "Jark", "xywh": {"x": 2195, "y": 1004, "w": 28, "h": 21}}, {"adminCode1": "BE", "lng": "7.44744", "geonameId": 2661552, "toponymName": "Bern", "countryId": "2658434", "fcl": "P", "population": 121631, "countryCode": "CH", "name": "Bern", "fclName": "city, village,...", "adminCodes1": {"ISO3166_2": "BE"}, "countryName": "Switzerland", "fcodeName": "capital of a political entity", "adminName1": "Bern", "lat": "46.94809", "fcode": "PPLC", "description": "3000", "xywh": {"x": 2286, "y": 1001, "w": 33, "h": 24}}, {"adminCode1": "32", "lng": "48.135", "geonameId": 117608, "toponymName": "S\u0304amar\u012bn", "countryId": "130758", "fcl": "P", "population": 0, "countryCode": "IR", "name": "S\u0304amar\u012bn", "fclName": "city, village,...", "adminCodes1": {"ISO3166_2": "03"}, "countryName": "Iran", "fcodeName": "populated place", "adminName1": "Ardab\u012bl", "lat": "38.3558", "fcode": "PPL", "description": "\u015eamarin", "xywh": {"x": 717, "y": 1052, "w": 50, "h": 44}}, {"adminCode1": "ESYE43", "lng": "24.02921", "geonameId": 260114, "toponymName": "Chani\u00e1", "countryId": "390903", "fcl": "P", "population": 53910, "countryCode": "GR", "name": "Chania", "fclName": "city, village,...", "adminCodes1": {"ISO3166_2": "M"}, "countryName": "Greece", "fcodeName": "seat of a second-order administrative division", "adminName1": "Crete", "lat": "35.51124", "fcode": "PPLA2", "description": "Chania", "xywh": {"x": 776, "y": 1047, "w": 78, "h": 45}}, {"adminCode1": "12", "lng": "-0.0345", "geonameId": 2361082, "toponymName": "Dori", "countryId": "2361809", "fcl": "P", "population": 37806, "countryCode": "BF", "name": "Dori", "fclName": "city, village,...", "adminCodes1": {"ISO3166_2": "12"}, "countryName": "Burkina Faso", "fcodeName": "seat of a first-order administrative division", "adminName1": "Sahel", "lat": "14.0354", "fcode": "PPLA", "description": "Dori", "xywh": {"x": 2592, "y": 1050, "w": 28, "h": 37}}, {"adminCode1": "00", "lng": "174.86667", "geonameId": 2193562, "toponymName": "Baring Head", "countryId": "2186224", "fcl": "T", "population": 0, "countryCode": "NZ", "name": "Baring Head", "fclName": "mountain,hill,rock,... ", "countryName": "New Zealand", "fcodeName": "cape", "adminName1": "", "lat": "-41.41667", "fcode": "CAPE", "description": "Baring", "xywh": {"x": 877, "y": 1084, "w": 46, "h": 18}}, {"adminCode1": "32", "lng": "48.35105", "geonameId": 122028, "toponymName": "Nowdeh", "countryId": "130758", "fcl": "P", "population": 0, "countryCode": "IR", "name": "Nowdeh", "fclName": "city, village,...", "adminCodes1": {"ISO3166_2": "03"}, "countryName": "Iran", "fcodeName": "populated place", "adminName1": "Ardab\u012bl", "lat": "37.80185", "fcode": "PPL", "description": "Nudi", "xywh": {"x": 1049, "y": 1048, "w": 29, "h": 45}}, {"adminCode1": "03", "lng": "-80.53333", "geonameId": 3552235, "toponymName": "La Parte", "countryId": "3562981", "fcl": "L", "population": 0, "countryCode": "CU", "name": "La Parte", "fclName": "parks,area, ...", "adminCodes1": {"ISO3166_2": "04"}, "countryName": "Cuba", "fcodeName": "locality", "adminName1": "Matanzas", "lat": "22.58333", "fcode": "LCTY", "description": "Parte", "xywh": {"x": 1065, "y": 1092, "w": 25, "h": 35}}, {"adminCode1": "06", "lng": "63.06638", "geonameId": 1460677, "toponymName": "K\u014dh-e Pa\u1e0fay", "countryId": "1149361", "fcl": "T", "population": 0, "countryCode": "AF", "name": "K\u014dh-e Pa\u1e0fay", "fclName": "mountain,hill,rock,... ", "adminCodes1": {"ISO3166_2": "FRA"}, "countryName": "Afghanistan", "fcodeName": "mountain", "adminName1": "Farah", "lat": "32.73414", "fcode": "MT", "description": "Paday", "xywh": {"x": 1310, "y": 1082, "w": 55, "h": 20}}, {"adminCode1": "05", "lng": "5.94861", "geonameId": 2759097, "toponymName": "Beringe", "countryId": "2750405", "fcl": "P", "population": 1925, "countryCode": "NL", "name": "Beringe", "fclName": "city, village,...", "adminCodes1": {"ISO3166_2": "LI"}, "countryName": "Netherlands", "fcodeName": "populated place", "adminName1": "Limburg", "lat": "51.33667", "fcode": "PPL", "description": "5986", "xywh": {"x": 2562, "y": 1115, "w": 27, "h": 11}}, {"adminCode1": "40", "lng": "54.33117", "geonameId": 114781, "toponymName": "God\u0101r-e Sh\u016br", "countryId": "130758", "fcl": "L", "population": 0, "countryCode": "IR", "name": "God\u0101r-e Sh\u016br", "fclName": "parks,area, ...", "adminCodes1": {"ISO3166_2": "25"}, "countryName": "Iran", "fcodeName": "area", "adminName1": "Yazd", "lat": "32.44147", "fcode": "AREA", "description": "Shur", "xywh": {"x": 682, "y": 1128, "w": 35, "h": 34}}, {"adminCode1": "17", "lng": "12.53463", "geonameId": 2621942, "toponymName": "Frederiksberg", "countryId": "2623032", "fcl": "P", "population": 95029, "countryCode": "DK", "name": "Frederiksberg", "fclName": "city, village,...", "adminCodes1": {"ISO3166_2": "84"}, "countryName": "Denmark", "fcodeName": "seat of a second-order administrative division", "adminName1": "Capital Region", "lat": "55.67938", "fcode": "PPLA2", "description": "2000", "xywh": {"x": 1371, "y": 1111, "w": 34, "h": 29}}, {"adminCode1": "02", "lng": "33.64417", "geonameId": 1024552, "toponymName": "Xai-Xai", "countryId": "1036973", "fcl": "P", "population": 127366, "countryCode": "MZ", "name": "Xai-Xai", "fclName": "city, village,...", "adminCodes1": {"ISO3166_2": "G"}, "countryName": "Mozambique", "fcodeName": "seat of a first-order administrative division", "adminName1": "Gaza", "lat": "-25.05194", "fcode": "PPLA", "description": "Shai", "xywh": {"x": 2606, "y": 1153, "w": 28, "h": 20}}, {"adminCode1": "29", "lng": "104.08349", "geonameId": 9097553, "toponymName": "Fase", "countryId": "1814991", "fcl": "P", "population": 0, "countryCode": "CN", "name": "Fase", "fclName": "city, village,...", "adminCodes1": {"ISO3166_2": "YN"}, "countryName": "China", "fcodeName": "populated place", "adminName1": "Yunnan", "lat": "25.23389", "fcode": "PPL", "description": "fase", "xywh": {"x": 14, "y": 1204, "w": 55, "h": 50}}, {"adminCode1": "17", "lng": "44.34625", "geonameId": 98860, "toponymName": "Najaf", "countryId": "99237", "fcl": "P", "population": 482576, "countryCode": "IQ", "name": "Najaf", "fclName": "city, village,...", "adminCodes1": {"ISO3166_2": "NA"}, "countryName": "Iraq", "fcodeName": "seat of a first-order administrative division", "adminName1": "An Najaf", "lat": "32.02594", "fcode": "PPLA", "description": "Ashraf", "xywh": {"x": 1970, "y": 1178, "w": 45, "h": 22}}, {"adminCode1": "10", "lng": "64", "geonameId": 1140043, "toponymName": "Helmand", "countryId": "1149361", "fcl": "A", "population": 925666, "countryCode": "AF", "name": "Helmand", "fclName": "country, state, region,...", "adminCodes1": {"ISO3166_2": "HEL"}, "countryName": "Afghanistan", "fcodeName": "first-order administrative division", "adminName1": "Helmand", "lat": "31", "fcode": "ADM1", "description": "Helmand", "xywh": {"x": 1882, "y": 1183, "w": 53, "h": 81}}, {"adminCode1": "55", "lng": "53.66667", "geonameId": 584471, "toponymName": "Abdulino", "countryId": "2017370", "fcl": "P", "population": 21195, "countryCode": "RU", "name": "Abdulino", "fclName": "city, village,...", "adminCodes1": {"ISO3166_2": "ORE"}, "countryName": "Russia", "fcodeName": "populated place", "adminName1": "Orenburg Oblast", "lat": "53.7", "fcode": "PPL", "description": "Abdulla", "xywh": {"x": 2073, "y": 1210, "w": 48, "h": 20}}, {"adminCode1": "43", "lng": "38.26488", "geonameId": 551535, "toponymName": "Kazaki", "countryId": "2017370", "fcl": "P", "population": 3227, "countryCode": "RU", "name": "Kazaki", "fclName": "city, village,...", "adminCodes1": {"ISO3166_2": "LIP"}, "countryName": "Russia", "fcodeName": "populated place", "adminName1": "Lipetsk Oblast", "lat": "52.62484", "fcode": "PPL", "description": "Kazaki", "xywh": {"x": 2132, "y": 1207, "w": 49, "h": 20}}, {"adminCode1": "12", "lng": "16.12083", "geonameId": 2592152, "toponymName": "Zanda", "countryId": "3351879", "fcl": "T", "population": 0, "countryCode": "AO", "name": "Zanda", "fclName": "mountain,hill,rock,... ", "adminCodes1": {"ISO3166_2": "MAL"}, "countryName": "Angola", "fcodeName": "hills", "adminName1": "Malanje", "lat": "-9.52056", "fcode": "HLLS", "description": "Z\u0101nda", "xywh": {"x": 2043, "y": 1240, "w": 42, "h": 27}}, {"adminCode1": "07", "lng": "5.16111", "geonameId": 2758064, "toponymName": "Bussum", "countryId": "2750405", "fcl": "P", "population": 31334, "countryCode": "NL", "name": "Bussum", "fclName": "city, village,...", "adminCodes1": {"ISO3166_2": "NH"}, "countryName": "Netherlands", "fcodeName": "populated place", "adminName1": "North Holland", "lat": "52.27333", "fcode": "PPL", "description": "1405", "xywh": {"x": 987, "y": 1253, "w": 28, "h": 19}}, {"adminCode1": "00", "lng": "65.18401", "geonameId": 1148388, "toponymName": "Arghundar Band", "countryId": "1149361", "fcl": "T", "population": 0, "countryCode": "AF", "name": "Arghundar Band", "fclName": "mountain,hill,rock,... ", "countryName": "Afghanistan", "fcodeName": "mountains", "adminName1": "", "lat": "32.73472", "fcode": "MTS", "description": "Band", "xywh": {"x": 1114, "y": 1246, "w": 42, "h": 20}}, {"adminCode1": "04", "lng": "60.5", "geonameId": 1159456, "toponymName": "Sistan and Baluchestan", "countryId": "130758", "fcl": "A", "population": 2775014, "countryCode": "IR", "name": "Sistan and Baluchestan", "fclName": "country, state, region,...", "adminCodes1": {"ISO3166_2": "13"}, "countryName": "Iran", "fcodeName": "first-order administrative division", "adminName1": "Sistan and Baluchestan", "lat": "28.5", "fcode": "ADM1", "description": "Sistan", "xywh": {"x": 1176, "y": 1243, "w": 44, "h": 20}}, {"adminCode1": "00", "lng": "9.45", "geonameId": 2217002, "toponymName": "Garet el Hamel", "countryId": "2215636", "fcl": "T", "population": 0, "countryCode": "LY", "name": "Garet el Hamel", "fclName": "mountain,hill,rock,... ", "countryName": "Libya", "fcodeName": "hill", "adminName1": "", "lat": "30.05", "fcode": "HLL", "description": "HAMIL", "xywh": {"x": 562, "y": 1298, "w": 31, "h": 12}}, {"adminCode1": "ENG", "lng": "-1.56667", "geonameId": 2635274, "toponymName": "Tyne and Wear", "countryId": "2635167", "fcl": "L", "population": 1128757, "countryCode": "GB", "name": "Tyne and Wear", "fclName": "parks,area, ...", "adminCodes1": {"ISO3166_2": "ENG"}, "countryName": "United Kingdom", "fcodeName": "region", "adminName1": "England", "lat": "54.91667", "fcode": "RGN", "description": "wear", "xywh": {"x": 59, "y": 1289, "w": 72, "h": 46}}, {"adminCode1": "41", "lng": "119.2597", "geonameId": 7589184, "toponymName": "Buttu Taking", "countryId": "1643084", "fcl": "T", "population": 0, "countryCode": "ID", "name": "Buttu Taking", "fclName": "mountain,hill,rock,... ", "adminCodes1": {"ISO3166_2": "SR"}, "countryName": "Indonesia", "fcodeName": "mountain", "adminName1": "West Sulawesi", "lat": "-3.2722", "fcode": "MT", "description": "taking", "xywh": {"x": 91, "y": 1359, "w": 53, "h": 51}}, {"adminCode1": "06", "lng": "60.91288", "geonameId": 7022159, "toponymName": "Aspar\u0101n", "countryId": "1149361", "fcl": "L", "population": 0, "countryCode": "AF", "name": "Aspar\u0101n", "fclName": "parks,area, ...", "adminCodes1": {"ISO3166_2": "FRA"}, "countryName": "Afghanistan", "fcodeName": "area", "adminName1": "Farah", "lat": "31.94983", "fcode": "AREA", "description": "Asparan", "xywh": {"x": 783, "y": 724, "w": 53, "h": 18}}, {"adminCode1": "41", "lng": "65.42063", "geonameId": 1477504, "toponymName": "K\u014dh-e Khushk", "countryId": "1149361", "fcl": "T", "population": 0, "countryCode": "AF", "name": "K\u014dh-e Khushk", "fclName": "mountain,hill,rock,... ", "adminCodes1": {"ISO3166_2": "DAY"}, "countryName": "Afghanistan", "fcodeName": "mountain", "adminName1": "Daykundi", "lat": "33.11153", "fcode": "MT", "description": "Khushk", "xywh": {"x": 1036, "y": 724, "w": 49, "h": 13}}, {"adminCode1": "23", "lng": "1.18611", "geonameId": 2366152, "toponymName": "Kara", "countryId": "2363686", "fcl": "P", "population": 104207, "countryCode": "TG", "name": "Kara", "fclName": "city, village,...", "adminCodes1": {"ISO3166_2": "K"}, "countryName": "Togo", "fcodeName": "seat of a first-order administrative division", "adminName1": "Kara", "lat": "9.55111", "fcode": "PPLA", "description": "Kala", "xywh": {"x": 2119, "y": 729, "w": 27, "h": 19}}, {"adminCode1": "75", "lng": "-1.03576", "geonameId": 3016875, "toponymName": "Gaas", "countryId": "3017382", "fcl": "P", "population": 396, "countryCode": "FR", "name": "Gaas", "fclName": "city, village,...", "adminCodes1": {"ISO3166_2": "NAQ"}, "countryName": "France", "fcodeName": "populated place", "adminName1": "Nouvelle-Aquitaine", "lat": "43.61324", "fcode": "PPL", "description": "Gaas", "xywh": {"x": 2157, "y": 729, "w": 32, "h": 19}}, {"adminCode1": "MO", "lng": "-94.45856", "geonameId": 4402809, "toponymName": "Peculiar", "countryId": "6252001", "fcl": "P", "population": 4885, "countryCode": "US", "name": "Peculiar", "fclName": "city, village,...", "adminCodes1": {"ISO3166_2": "MO"}, "countryName": "United States", "fcodeName": "populated place", "adminName1": "Missouri", "lat": "38.71918", "fcode": "PPL", "description": "78892", "xywh": {"x": 2430, "y": 738, "w": 40, "h": 12}}, {"adminCode1": "41", "lng": "66.64108", "geonameId": 1136257, "toponymName": "Khw\u0101jah-Ch\u0101sht", "countryId": "1149361", "fcl": "L", "population": 0, "countryCode": "AF", "name": "Khw\u0101jah-Ch\u0101sht", "fclName": "parks,area, ...", "adminCodes1": {"ISO3166_2": "DAY"}, "countryName": "Afghanistan", "fcodeName": "locality", "adminName1": "Daykundi", "lat": "33.70114", "fcode": "LCTY", "description": "Khwaja", "xywh": {"x": 681, "y": 758, "w": 46, "h": 21}}, {"adminCode1": "10", "lng": "64.62803", "geonameId": 1432345, "toponymName": "Sh\u014drak\u012b", "countryId": "1149361", "fcl": "L", "population": 0, "countryCode": "AF", "name": "Sh\u014drak\u012b", "fclName": "parks,area, ...", "adminCodes1": {"ISO3166_2": "HEL"}, "countryName": "Afghanistan", "fcodeName": "locality", "adminName1": "Helmand", "lat": "31.26012", "fcode": "LCTY", "description": "Shoraki", "xywh": {"x": 2119, "y": 752, "w": 55, "h": 20}}, {"adminCode1": "05", "lng": "68.37366", "geonameId": 1176734, "toponymName": "Hyderabad", "countryId": "1168579", "fcl": "P", "population": 1386330, "countryCode": "PK", "name": "Hyder\u0101b\u0101d", "fclName": "city, village,...", "adminCodes1": {"ISO3166_2": "SD"}, "countryName": "Pakistan", "fcodeName": "seat of a second-order administrative division", "adminName1": "Sindh", "lat": "25.39242", "fcode": "PPLA2", "description": "Haidar\u0101b\u0101d", "xywh": {"x": 2193, "y": 754, "w": 81, "h": 21}}, {"adminCode1": "00", "lng": "57.4263", "geonameId": 6988294, "toponymName": "L\u0101r\u012b\u0101n", "countryId": "130758", "fcl": "P", "population": 0, "countryCode": "IR", "name": "L\u0101r\u012b\u0101n", "fclName": "city, village,...", "countryName": "Iran", "fcodeName": "populated place", "adminName1": "", "lat": "27.5404", "fcode": "PPL", "description": "Larian", "xywh": {"x": 2385, "y": 756, "w": 44, "h": 21}}, {"adminCode1": "03", "lng": "-110.39263", "geonameId": 8932675, "toponymName": "El Okey", "countryId": "3996063", "fcl": "P", "population": 6, "countryCode": "MX", "name": "El Okey", "fclName": "city, village,...", "adminCodes1": {"ISO3166_2": "BCS"}, "countryName": "Mexico", "fcodeName": "populated place", "adminName1": "Baja California Sur", "lat": "24.08581", "fcode": "PPL", "description": "okey", "xywh": {"x": 2439, "y": 755, "w": 18, "h": 19}}, {"adminCode1": "08", "lng": "67.59686", "geonameId": 1438194, "toponymName": "K\u014dh-e Tabaq Sar", "countryId": "1149361", "fcl": "T", "population": 0, "countryCode": "AF", "name": "K\u014dh-e Tabaq Sar", "fclName": "mountain,hill,rock,... ", "adminCodes1": {"ISO3166_2": "GHA"}, "countryName": "Afghanistan", "fcodeName": "mountain", "adminName1": "Ghazni", "lat": "33.9874", "fcode": "MT", "description": "Tabaksar", "xywh": {"x": 1660, "y": 766, "w": 60, "h": 17}}, {"adminCode1": "37", "lng": "55.91667", "geonameId": 9522217, "toponymName": "Shahrest\u0101n-e Mar\u0101veh Tappeh", "countryId": "130758", "fcl": "A", "population": 60953, "countryCode": "IR", "name": "Shahrest\u0101n-e Mar\u0101veh Tappeh", "fclName": "country, state, region,...", "adminCodes1": {"ISO3166_2": "27"}, "countryName": "Iran", "fcodeName": "second-order administrative division", "adminName1": "Golestan", "lat": "37.85", "fcode": "ADM2", "description": "Tappeh", "xywh": {"x": 1729, "y": 766, "w": 46, "h": 17}}, {"adminCode1": "30", "lng": "40.81522", "geonameId": 198875, "toponymName": "Dongo Kundu", "countryId": "192950", "fcl": "L", "population": 0, "countryCode": "KE", "name": "Dongo Kundu", "fclName": "parks,area, ...", "adminCodes1": {"ISO3166_2": "21"}, "countryName": "Kenya", "fcodeName": "area", "adminName1": "Lamu", "lat": "-2.38286", "fcode": "AREA", "description": "Kundu", "xywh": {"x": 1101, "y": 772, "w": 46, "h": 19}}, {"adminCode1": "00", "lng": "-60.06575", "geonameId": 3427199, "toponymName": "Mount Adam", "countryId": "3474414", "fcl": "T", "population": 0, "countryCode": "FK", "name": "Mount Adam", "fclName": "mountain,hill,rock,... ", "countryName": "Falkland Islands", "fcodeName": "mountain", "adminName1": "", "lat": "-51.5818", "fcode": "MT", "description": "Adam", "xywh": {"x": 2058, "y": 771, "w": 31, "h": 18}}, {"adminCode1": "00", "lng": "42.95758", "geonameId": 614007, "toponymName": "Khani", "countryId": "614540", "fcl": "P", "population": 0, "countryCode": "GE", "name": "Khani", "fclName": "city, village,...", "countryName": "Georgia", "fcodeName": "populated place", "adminName1": "", "lat": "41.95533", "fcode": "PPL", "description": "Khani", "xywh": {"x": 2107, "y": 772, "w": 59, "h": 18}}, {"adminCode1": "41", "lng": "60.00822", "geonameId": 1159502, "toponymName": "Sh\u016bsef", "countryId": "130758", "fcl": "P", "population": 0, "countryCode": "IR", "name": "Sh\u016bsef", "fclName": "city, village,...", "adminCodes1": {"ISO3166_2": "29"}, "countryName": "Iran", "fcodeName": "populated place", "adminName1": "Khor\u0101s\u0101n-e Jon\u016bb\u012b", "lat": "31.80359", "fcode": "PPL", "description": "Shusp", "xywh": {"x": 489, "y": 791, "w": 45, "h": 17}}, {"adminCode1": "83", "lng": "89.75346", "geonameId": 11282668, "toponymName": "Char Girish", "countryId": "1210997", "fcl": "A", "population": 0, "countryCode": "BD", "name": "Char Girish", "fclName": "country, state, region,...", "adminCodes1": {"ISO3166_2": "E"}, "countryName": "Bangladesh", "fcodeName": "fourth-order administrative division", "adminName1": "Rajshahi Division", "lat": "24.72169", "fcode": "ADM4", "description": "Girish", "xywh": {"x": 2038, "y": 788, "w": 52, "h": 18}}, {"adminCode1": "11", "lng": "4.60278", "geonameId": 2748172, "toponymName": "Ridderkerk", "countryId": "2750405", "fcl": "P", "population": 45189, "countryCode": "NL", "name": "Ridderkerk", "fclName": "city, village,...", "adminCodes1": {"ISO3166_2": "ZH"}, "countryName": "Netherlands", "fcodeName": "populated place", "adminName1": "South Holland", "lat": "51.8725", "fcode": "PPL", "description": "2981", "xywh": {"x": 2082, "y": 801, "w": 24, "h": 24}}, {"adminCode1": "06", "lng": "5.40278", "geonameId": 2745706, "toponymName": "Veldhoven", "countryId": "2750405", "fcl": "P", "population": 5340, "countryCode": "NL", "name": "Veldhoven", "fclName": "city, village,...", "adminCodes1": {"ISO3166_2": "NB"}, "countryName": "Netherlands", "fcodeName": "populated place", "adminName1": "North Brabant", "lat": "51.41833", "fcode": "PPL", "description": "5509", "xywh": {"x": 2433, "y": 798, "w": 31, "h": 15}}, {"adminCode1": "29", "lng": "55.388", "geonameId": 68836, "toponymName": "Ch\u0101h \u2018Arab\u016byeh", "countryId": "130758", "fcl": "L", "population": 0, "countryCode": "IR", "name": "Ch\u0101h \u2018Arab\u016byeh", "fclName": "parks,area, ...", "adminCodes1": {"ISO3166_2": "15"}, "countryName": "Iran", "fcodeName": "area", "adminName1": "Kerman", "lat": "28.6854", "fcode": "AREA", "description": "Chah", "xywh": {"x": 1124, "y": 810, "w": 34, "h": 21}}, {"adminCode1": "00", "lng": "4.5", "geonameId": 2802361, "toponymName": "Kingdom of Belgium", "countryId": "2802361", "fcl": "A", "population": 10403000, "countryCode": "BE", "name": "Belgium", "fclName": "country, state, region,...", "countryName": "Belgium", "fcodeName": "independent political entity", "adminName1": "", "lat": "50.75", "fcode": "PCLI", "description": "Belgi", "xywh": {"x": 1180, "y": 810, "w": 38, "h": 21}}, {"adminCode1": "04", "lng": "73.02834", "geonameId": 1181887, "toponymName": "Chak Azam Sahu", "countryId": "1168579", "fcl": "P", "population": 38216, "countryCode": "PK", "name": "Chak Azam Sahu", "fclName": "city, village,...", "adminCodes1": {"ISO3166_2": "PB"}, "countryName": "Pakistan", "fcodeName": "populated place", "adminName1": "Punjab", "lat": "30.75202", "fcode": "PPL", "description": "Chak", "xywh": {"x": 691, "y": 829, "w": 37, "h": 18}}, {"adminCode1": "23", "lng": "47.3479", "geonameId": 27399, "toponymName": "Bareh J\u016bl\u0101", "countryId": "130758", "fcl": "P", "population": 0, "countryCode": "IR", "name": "Bareh J\u016bl\u0101", "fclName": "city, village,...", "adminCodes1": {"ISO3166_2": "20"}, "countryName": "Iran", "fcodeName": "populated place", "adminName1": "Lorest\u0101n", "lat": "33.5603", "fcode": "PPL", "description": "Jula", "xywh": {"x": 736, "y": 829, "w": 26, "h": 18}}, {"adminCode1": "75", "lng": "22.20143", "geonameId": 762024, "toponymName": "P\u0142onki", "countryId": "798544", "fcl": "P", "population": 0, "countryCode": "PL", "name": "P\u0142onki", "fclName": "city, village,...", "adminCodes1": {"ISO3166_2": "LU"}, "countryName": "Poland", "fcodeName": "populated place", "adminName1": "Lublin", "lat": "51.37277", "fcode": "PPL", "description": "Plonki", "xywh": {"x": 803, "y": 829, "w": 45, "h": 18}}, {"adminCode1": "12", "lng": "101.53281", "geonameId": 1732903, "toponymName": "Shah Alam", "countryId": "1733045", "fcl": "P", "population": 481654, "countryCode": "MY", "name": "Shah Alam", "fclName": "city, village,...", "adminCodes1": {"ISO3166_2": "10"}, "countryName": "Malaysia", "fcodeName": "populated place", "adminName1": "Selangor", "lat": "3.08507", "fcode": "PPL", "description": "Shah", "xywh": {"x": 1985, "y": 823, "w": 32, "h": 20}}, {"adminCode1": "11", "lng": "44.26573", "geonameId": 97467, "toponymName": "Ras\u016bl Bisk\u016bl", "countryId": "99237", "fcl": "L", "population": 0, "countryCode": "IQ", "name": "Ras\u016bl Bisk\u016bl", "fclName": "parks,area, ...", "adminCodes1": {"ISO3166_2": "AR"}, "countryName": "Iraq", "fcodeName": "locality", "adminName1": "Arb\u012bl", "lat": "36.05361", "fcode": "LCTY", "description": "Rasul", "xywh": {"x": 2026, "y": 823, "w": 40, "h": 20}}, {"adminCode1": "WAL", "lng": "4.86746", "geonameId": 2790471, "toponymName": "Namur", "countryId": "2802361", "fcl": "P", "population": 106284, "countryCode": "BE", "name": "Namur", "fclName": "city, village,...", "adminCodes1": {"ISO3166_2": "WAL"}, "countryName": "Belgium", "fcodeName": "seat of a first-order administrative division", "adminName1": "Wallonia", "lat": "50.4669", "fcode": "PPLA", "description": "5000", "xywh": {"x": 429, "y": 839, "w": 29, "h": 18}}, {"adminCode1": "06", "lng": "61.62272", "geonameId": 1134724, "toponymName": "L\u0101sh-e Juwayn", "countryId": "1149361", "fcl": "P", "population": 0, "countryCode": "AF", "name": "L\u0101sh-e Juwayn", "fclName": "city, village,...", "adminCodes1": {"ISO3166_2": "FRA"}, "countryName": "Afghanistan", "fcodeName": "seat of a second-order administrative division", "adminName1": "Farah", "lat": "31.71382", "fcode": "PPLA2", "description": "Juwain", "xywh": {"x": 1052, "y": 830, "w": 62, "h": 23}}, {"adminCode1": "NM", "lng": "-103.44662", "geonameId": 5453035, "toponymName": "12650 Water Well", "countryId": "6252001", "fcl": "H", "population": 0, "countryCode": "US", "name": "12650 Water Well", "fclName": "stream, lake, ...", "adminCodes1": {"ISO3166_2": "NM"}, "countryName": "United States", "fcodeName": "well", "adminName1": "New Mexico", "lat": "34.19953", "fcode": "WLL", "description": "12650", "xywh": {"x": 765, "y": 840, "w": 35, "h": 15}}, {"adminCode1": "BS", "lng": "7.57327", "geonameId": 2661604, "toponymName": "Basel", "countryId": "2658434", "fcl": "P", "population": 164488, "countryCode": "CH", "name": "Basel", "fclName": "city, village,...", "adminCodes1": {"ISO3166_2": "BS"}, "countryName": "Switzerland", "fcodeName": "seat of a first-order administrative division", "adminName1": "Basel-City", "lat": "47.55839", "fcode": "PPLA", "description": "B\u0101la", "xywh": {"x": 2137, "y": 849, "w": 24, "h": 25}}, {"adminCode1": "29", "lng": "68.54573", "geonameId": 1133234, "toponymName": "M\u012br Kh\u0101nay", "countryId": "1149361", "fcl": "P", "population": 0, "countryCode": "AF", "name": "M\u012br Kh\u0101nay", "fclName": "city, village,...", "adminCodes1": {"ISO3166_2": "PKA"}, "countryName": "Afghanistan", "fcodeName": "populated place", "adminName1": "Paktika", "lat": "32.66516", "fcode": "PPL", "description": "Kh\u0101nay", "xywh": {"x": 2174, "y": 850, "w": 94, "h": 27}}, {"adminCode1": "32", "lng": "21.51667", "geonameId": 863853, "toponymName": "Gazi Baba", "countryId": "718075", "fcl": "A", "population": 76182, "countryCode": "MK", "name": "Gazi Baba", "fclName": "country, state, region,...", "adminCodes1": {"ISO3166_2": "17"}, "countryName": "North Macedonia", "fcodeName": "first-order administrative division", "adminName1": "Gazi Baba", "lat": "42.05", "fcode": "ADM1", "description": "Baba", "xywh": {"x": 2516, "y": 848, "w": 30, "h": 15}}, {"adminCode1": "37", "lng": "69.50964", "geonameId": 1434389, "toponymName": "Sh\u0113r Wal\u012b", "countryId": "1149361", "fcl": "P", "population": 0, "countryCode": "AF", "name": "Sh\u0113r Wal\u012b", "fclName": "city, village,...", "adminCodes1": {"ISO3166_2": "KHO"}, "countryName": "Afghanistan", "fcodeName": "populated place", "adminName1": "Khowst", "lat": "33.1997", "fcode": "PPL", "description": "Wali", "xywh": {"x": 2554, "y": 848, "w": 35, "h": 15}}, {"adminCode1": "11", "lng": "99.7062", "geonameId": 6920156, "toponymName": "Buryat-Gol", "countryId": "2017370", "fcl": "H", "population": 0, "countryCode": "RU", "name": "Buryat-Gol", "fclName": "stream, lake, ...", "adminCodes1": {"ISO3166_2": "BU"}, "countryName": "Russia", "fcodeName": "stream", "adminName1": "Buryatiya Republic", "lat": "52.5689", "fcode": "STM", "description": "Burjat", "xywh": {"x": 554, "y": 873, "w": 42, "h": 21}}, {"adminCode1": "22", "lng": "42.66899", "geonameId": 75587, "toponymName": "Jaz\u012brat Ghur\u0101b", "countryId": "69543", "fcl": "T", "population": 0, "countryCode": "YE", "name": "Jaz\u012brat Ghur\u0101b", "fclName": "mountain,hill,rock,... ", "adminCodes1": {"ISO3166_2": "HJ"}, "countryName": "Yemen", "fcodeName": "island", "adminName1": "\u1e28ajjah", "lat": "16.16898", "fcode": "ISL", "description": "Ghurab", "xywh": {"x": 600, "y": 873, "w": 52, "h": 21}}, {"adminCode1": "35", "lng": "70.00927", "geonameId": 1474198, "toponymName": "M\u0101yim\u0101sh Kan\u1e0fah", "countryId": "1149361", "fcl": "P", "population": 0, "countryCode": "AF", "name": "M\u0101yim\u0101sh Kan\u1e0fah", "fclName": "city, village,...", "adminCodes1": {"ISO3166_2": "LAG"}, "countryName": "Afghanistan", "fcodeName": "populated place", "adminName1": "Laghman", "lat": "34.98825", "fcode": "PPL", "description": "KANDAH", "xywh": {"x": 2526, "y": 861, "w": 96, "h": 18}}, {"adminCode1": "29", "lng": "55.388", "geonameId": 68836, "toponymName": "Ch\u0101h \u2018Arab\u016byeh", "countryId": "130758", "fcl": "L", "population": 0, "countryCode": "IR", "name": "Ch\u0101h \u2018Arab\u016byeh", "fclName": "parks,area, ...", "adminCodes1": {"ISO3166_2": "15"}, "countryName": "Iran", "fcodeName": "area", "adminName1": "Kerman", "lat": "28.6854", "fcode": "AREA", "description": "Chah", "xywh": {"x": 1869, "y": 868, "w": 34, "h": 18}}, {"adminCode1": "06", "lng": "61.249", "geonameId": 7052917, "toponymName": "An\u0101r Darah", "countryId": "1149361", "fcl": "A", "population": 0, "countryCode": "AF", "name": "An\u0101r Darah", "fclName": "country, state, region,...", "adminCodes1": {"ISO3166_2": "FRA"}, "countryName": "Afghanistan", "fcodeName": "second-order administrative division", "adminName1": "Farah", "lat": "33.01119", "fcode": "ADM2", "description": "Darah", "xywh": {"x": 1923, "y": 868, "w": 45, "h": 18}}, {"adminCode1": "23", "lng": "7.7227", "geonameId": 2317765, "toponymName": "Zaria", "countryId": "2328926", "fcl": "P", "population": 975153, "countryCode": "NG", "name": "Zaria", "fclName": "city, village,...", "adminCodes1": {"ISO3166_2": "KD"}, "countryName": "Nigeria", "fcodeName": "populated place", "adminName1": "Kaduna", "lat": "11.11128", "fcode": "PPL", "description": "Gari", "xywh": {"x": 1497, "y": 880, "w": 34, "h": 17}}, {"adminCode1": "00", "lng": "63.9", "geonameId": 1513398, "toponymName": "Kolodets Kuna-Gumbas", "countryId": "1512440", "fcl": "H", "population": 0, "countryCode": "UZ", "name": "Kolodets Kuna-Gumbas", "fclName": "stream, lake, ...", "countryName": "Uzbekistan", "fcodeName": "well", "adminName1": "", "lat": "40.15", "fcode": "WLL", "description": "Gumbas", "xywh": {"x": 1752, "y": 879, "w": 57, "h": 15}}, {"adminCode1": "VA", "lng": "-75.73382", "geonameId": 4780766, "toponymName": "Quinby", "countryId": "6252001", "fcl": "P", "population": 282, "countryCode": "US", "name": "Quinby", "fclName": "city, village,...", "adminCodes1": {"ISO3166_2": "VA"}, "countryName": "United States", "fcodeName": "populated place", "adminName1": "Virginia", "lat": "37.55375", "fcode": "PPL", "description": "23423", "xywh": {"x": 2487, "y": 874, "w": 36, "h": 13}}, {"adminCode1": "29", "lng": "55.388", "geonameId": 68836, "toponymName": "Ch\u0101h \u2018Arab\u016byeh", "countryId": "130758", "fcl": "L", "population": 0, "countryCode": "IR", "name": "Ch\u0101h \u2018Arab\u016byeh", "fclName": "parks,area, ...", "adminCodes1": {"ISO3166_2": "15"}, "countryName": "Iran", "fcodeName": "area", "adminName1": "Kerman", "lat": "28.6854", "fcode": "AREA", "description": "Chah", "xywh": {"x": 1564, "y": 882, "w": 34, "h": 16}}, {"adminCode1": "06", "lng": "62.69199", "geonameId": 1134718, "toponymName": "Dasht-e Lashkar\u012b", "countryId": "1149361", "fcl": "T", "population": 0, "countryCode": "AF", "name": "Dasht-e Lashkar\u012b", "fclName": "mountain,hill,rock,... ", "adminCodes1": {"ISO3166_2": "FRA"}, "countryName": "Afghanistan", "fcodeName": "plain(s)", "adminName1": "Farah", "lat": "32.67067", "fcode": "PLN", "description": "Lashkari", "xywh": {"x": 2038, "y": 874, "w": 60, "h": 16}}, {"adminCode1": "00", "lng": "-175.61667", "geonameId": 4034850, "toponymName": "Home Seamount", "countryId": "4034749", "fcl": "U", "population": 0, "countryCode": "WF", "name": "Home Seamount", "fclName": "undersea", "countryName": "Wallis and Futuna", "fcodeName": "seamount", "adminName1": "", "lat": "-12.91667", "fcode": "SMU", "description": "Home", "xywh": {"x": 2349, "y": 881, "w": 33, "h": 20}}, {"adminCode1": "27", "lng": "68.08133", "geonameId": 1128856, "toponymName": "Q\u014dl-e Madat", "countryId": "1149361", "fcl": "P", "population": 0, "countryCode": "AF", "name": "Q\u014dl-e Madat", "fclName": "city, village,...", "adminCodes1": {"ISO3166_2": "WAR"}, "countryName": "Afghanistan", "fcodeName": "populated place", "adminName1": "Vardak", "lat": "34.4741", "fcode": "PPL", "description": "Madat", "xywh": {"x": 2390, "y": 880, "w": 43, "h": 20}}, {"adminCode1": "20", "lng": "129.15741", "geonameId": 11090956, "toponymName": "Gumbawi", "countryId": "1835841", "fcl": "P", "population": 0, "countryCode": "KR", "name": "Gumbawi", "fclName": "city, village,...", "adminCodes1": {"ISO3166_2": "48"}, "countryName": "South Korea", "fcodeName": "populated place", "adminName1": "Gyeongsangnam-do", "lat": "35.39144", "fcode": "PPL", "description": "Gumbawi", "xywh": {"x": 2199, "y": 883, "w": 72, "h": 20}}, {"adminCode1": "38", "lng": "70.37376", "geonameId": 1123575, "toponymName": "S\u016br\u012bch", "countryId": "1149361", "fcl": "P", "population": 0, "countryCode": "AF", "name": "S\u016br\u012bch", "fclName": "city, village,...", "adminCodes1": {"ISO3166_2": "NUR"}, "countryName": "Afghanistan", "fcodeName": "populated place", "adminName1": "Nuristan", "lat": "35.22202", "fcode": "PPL", "description": "Surich", "xywh": {"x": 2275, "y": 884, "w": 39, "h": 21}}, {"adminCode1": "04", "lng": "-6.83255", "geonameId": 2538475, "toponymName": "Rabat", "countryId": "2542007", "fcl": "P", "population": 1655753, "countryCode": "MA", "name": "Rabat", "fclName": "city, village,...", "adminCodes1": {"ISO3166_2": "04"}, "countryName": "Morocco", "fcodeName": "capital of a political entity", "adminName1": "Rabat-Sal\u00e9-K\u00e9nitra", "lat": "34.01325", "fcode": "PPLC", "description": "Rabat", "xywh": {"x": 2590, "y": 881, "w": 37, "h": 13}}, {"adminCode1": "41", "lng": "57.44017", "geonameId": 66488, "toponymName": "Takht-e N\u0101der", "countryId": "130758", "fcl": "L", "population": 0, "countryCode": "IR", "name": "Takht-e N\u0101der", "fclName": "parks,area, ...", "adminCodes1": {"ISO3166_2": "29"}, "countryName": "Iran", "fcodeName": "area", "adminName1": "Khor\u0101s\u0101n-e Jon\u016bb\u012b", "lat": "32.9644", "fcode": "AREA", "description": "Takht", "xywh": {"x": 1108, "y": 893, "w": 41, "h": 18}}, {"adminCode1": "08", "lng": "67.72286", "geonameId": 1448894, "toponymName": "Ma\u012bd\u0101n-e Rustam", "countryId": "1149361", "fcl": "T", "population": 0, "countryCode": "AF", "name": "Ma\u012bd\u0101n-e Rustam", "fclName": "mountain,hill,rock,... ", "adminCodes1": {"ISO3166_2": "GHA"}, "countryName": "Afghanistan", "fcodeName": "mountain", "adminName1": "Ghazni", "lat": "33.34003", "fcode": "MT", "description": "Rustam", "xywh": {"x": 1165, "y": 893, "w": 47, "h": 18}}, {"adminCode1": "05", "lng": "6.08889", "geonameId": 2744865, "toponymName": "Well", "countryId": "2750405", "fcl": "P", "population": 2500, "countryCode": "NL", "name": "Well", "fclName": "city, village,...", "adminCodes1": {"ISO3166_2": "LI"}, "countryName": "Netherlands", "fcodeName": "populated place", "adminName1": "Limburg", "lat": "51.55", "fcode": "PPL", "description": "Well", "xywh": {"x": 1658, "y": 899, "w": 30, "h": 15}}, {"adminCode1": "29", "lng": "55.388", "geonameId": 68836, "toponymName": "Ch\u0101h \u2018Arab\u016byeh", "countryId": "130758", "fcl": "L", "population": 0, "countryCode": "IR", "name": "Ch\u0101h \u2018Arab\u016byeh", "fclName": "parks,area, ...", "adminCodes1": {"ISO3166_2": "15"}, "countryName": "Iran", "fcodeName": "area", "adminName1": "Kerman", "lat": "28.6854", "fcode": "AREA", "description": "Chah", "xywh": {"x": 742, "y": 906, "w": 34, "h": 19}}, {"adminCode1": "02", "lng": "66.804", "geonameId": 11272329, "toponymName": "Maki", "countryId": "1168579", "fcl": "L", "population": 0, "countryCode": "PK", "name": "Maki", "fclName": "parks,area, ...", "adminCodes1": {"ISO3166_2": "BA"}, "countryName": "Pakistan", "fcodeName": "area", "adminName1": "Balochistan", "lat": "29.29249", "fcode": "AREA", "description": "Maki", "xywh": {"x": 785, "y": 907, "w": 36, "h": 19}}, {"adminCode1": "04", "lng": "21.37923", "geonameId": 10057090, "toponymName": "Kuore", "countryId": "660013", "fcl": "T", "population": 0, "countryCode": "FI", "name": "Kuore", "fclName": "mountain,hill,rock,... ", "adminCodes1": {"ISO3166_2": "17"}, "countryName": "Finland", "fcodeName": "island", "adminName1": "Satakunta", "lat": "61.41225", "fcode": "ISL", "description": "KUORE", "xywh": {"x": 925, "y": 911, "w": 41, "h": 21}}, {"adminCode1": "06", "lng": "62.27848", "geonameId": 1428321, "toponymName": "Kha\u012br\u0101b\u0101d R\u014dd", "countryId": "1149361", "fcl": "L", "population": 0, "countryCode": "AF", "name": "Kha\u012br\u0101b\u0101d R\u014dd", "fclName": "parks,area, ...", "adminCodes1": {"ISO3166_2": "FRA"}, "countryName": "Afghanistan", "fcodeName": "locality", "adminName1": "Farah", "lat": "32.3071", "fcode": "LCTY", "description": "Khairabad", "xywh": {"x": 1021, "y": 913, "w": 70, "h": 16}}, {"adminCode1": "04", "lng": "61.2", "geonameId": 1482481, "toponymName": "Shahrest\u0101n-e Kh\u0101sh", "countryId": "130758", "fcl": "A", "population": 173821, "countryCode": "IR", "name": "Shahrest\u0101n-e Kh\u0101sh", "fclName": "country, state, region,...", "adminCodes1": {"ISO3166_2": "13"}, "countryName": "Iran", "fcodeName": "second-order administrative division", "adminName1": "Sistan and Baluchestan", "lat": "28.21667", "fcode": "ADM2", "description": "Khash", "xywh": {"x": 1454, "y": 907, "w": 41, "h": 15}}, {"adminCode1": "01", "lng": "6.76389", "geonameId": 2755527, "toponymName": "Gieten", "countryId": "2750405", "fcl": "P", "population": 4885, "countryCode": "NL", "name": "Gieten", "fclName": "city, village,...", "adminCodes1": {"ISO3166_2": "DR"}, "countryName": "Netherlands", "fcodeName": "populated place", "adminName1": "Drenthe", "lat": "53.005", "fcode": "PPL", "description": "1680", "xywh": {"x": 1122, "y": 915, "w": 24, "h": 14}}, {"adminCode1": "12", "lng": "101.53281", "geonameId": 1732903, "toponymName": "Shah Alam", "countryId": "1733045", "fcl": "P", "population": 481654, "countryCode": "MY", "name": "Shah Alam", "fclName": "city, village,...", "adminCodes1": {"ISO3166_2": "10"}, "countryName": "Malaysia", "fcodeName": "populated place", "adminName1": "Selangor", "lat": "3.08507", "fcode": "PPL", "description": "Shah", "xywh": {"x": 2343, "y": 915, "w": 31, "h": 21}}, {"adminCode1": "43", "lng": "11.16707", "geonameId": 8659776, "toponymName": "Ardo-Kola", "countryId": "2328926", "fcl": "A", "population": 0, "countryCode": "NG", "name": "Ardo-Kola", "fclName": "country, state, region,...", "adminCodes1": {"ISO3166_2": "TA"}, "countryName": "Nigeria", "fcodeName": "second-order administrative division", "adminName1": "Taraba", "lat": "8.80359", "fcode": "ADM2", "description": "kola", "xywh": {"x": 2414, "y": 913, "w": 31, "h": 21}}, {"adminCode1": "26", "lng": "70.3782", "geonameId": 1120968, "toponymName": "K\u014dh-e Zard", "countryId": "1149361", "fcl": "T", "population": 0, "countryCode": "AF", "name": "K\u014dh-e Zard", "fclName": "mountain,hill,rock,... ", "adminCodes1": {"ISO3166_2": "TAK"}, "countryName": "Afghanistan", "fcodeName": "mountain", "adminName1": "Takhar", "lat": "36.10709", "fcode": "MT", "description": "ZARD", "xywh": {"x": 591, "y": 931, "w": 28, "h": 16}}, {"adminCode1": "14", "lng": "146.35784", "geonameId": 2096376, "toponymName": "Hamuni", "countryId": "2088628", "fcl": "P", "population": 0, "countryCode": "PG", "name": "Hamuni", "fclName": "city, village,...", "adminCodes1": {"ISO3166_2": "MPL"}, "countryName": "Papua New Guinea", "fcodeName": "populated place", "adminName1": "Morobe", "lat": "-7.49262", "fcode": "PPL", "description": "Hamuni", "xywh": {"x": 896, "y": 928, "w": 79, "h": 22}}, {"adminCode1": "28", "lng": "52.98333", "geonameId": 403484, "toponymName": "Q\u016bd\u0101r", "countryId": "130758", "fcl": "P", "population": 0, "countryCode": "IR", "name": "Q\u016bd\u0101r", "fclName": "city, village,...", "adminCodes1": {"ISO3166_2": "04"}, "countryName": "Iran", "fcodeName": "populated place", "adminName1": "Isfahan", "lat": "32.65556", "fcode": "PPL", "description": "QUDAR", "xywh": {"x": 535, "y": 943, "w": 34, "h": 20}}, {"adminCode1": "23", "lng": "1.18611", "geonameId": 2366152, "toponymName": "Kara", "countryId": "2363686", "fcl": "P", "population": 104207, "countryCode": "TG", "name": "Kara", "fclName": "city, village,...", "adminCodes1": {"ISO3166_2": "K"}, "countryName": "Togo", "fcodeName": "seat of a first-order administrative division", "adminName1": "Kara", "lat": "9.55111", "fcode": "PPLA", "description": "Kala", "xywh": {"x": 2038, "y": 940, "w": 34, "h": 18}}, {"adminCode1": "02", "lng": "64.39633", "geonameId": 1470367, "toponymName": "Tag\u0101w-e B\u012bst", "countryId": "1149361", "fcl": "T", "population": 0, "countryCode": "AF", "name": "Tag\u0101w-e B\u012bst", "fclName": "mountain,hill,rock,... ", "adminCodes1": {"ISO3166_2": "BDG"}, "countryName": "Afghanistan", "fcodeName": "valley", "adminName1": "Badghis", "lat": "34.91157", "fcode": "VAL", "description": "Bist", "xywh": {"x": 2083, "y": 940, "w": 29, "h": 18}}, {"adminCode1": "23", "lng": "65.64414", "geonameId": 7053298, "toponymName": "Arghand\u0101b", "countryId": "1149361", "fcl": "A", "population": 0, "countryCode": "AF", "name": "Arghand\u0101b", "fclName": "country, state, region,...", "adminCodes1": {"ISO3166_2": "KAN"}, "countryName": "Afghanistan", "fcodeName": "second-order administrative division", "adminName1": "Kandahar", "lat": "31.75863", "fcode": "ADM2", "description": "Arghandab", "xywh": {"x": 2207, "y": 931, "w": 84, "h": 31}}, {"adminCode1": "71", "lng": "58.48273", "geonameId": 538737, "toponymName": "Kurki", "countryId": "2017370", "fcl": "P", "population": 0, "countryCode": "RU", "name": "Kurki", "fclName": "city, village,...", "adminCodes1": {"ISO3166_2": "SVE"}, "countryName": "Russia", "fcodeName": "populated place", "adminName1": "Sverdlovsk", "lat": "56.49614", "fcode": "PPL", "description": "Kurki", "xywh": {"x": 1678, "y": 945, "w": 41, "h": 17}}, {"adminCode1": "10", "lng": "118.03556", "geonameId": 10046521, "toponymName": "Chahe", "countryId": "1814991", "fcl": "A", "population": 0, "countryCode": "CN", "name": "Chahe", "fclName": "country, state, region,...", "adminCodes1": {"ISO3166_2": "HE"}, "countryName": "China", "fcodeName": "fourth-order administrative division", "adminName1": "Hebei", "lat": "39.58565", "fcode": "ADM4", "description": "CHAHE", "xywh": {"x": 2366, "y": 931, "w": 76, "h": 31}}, {"adminCode1": "13", "lng": "113.4", "geonameId": 1640948, "toponymName": "Kabupaten Katingan", "countryId": "1643084", "fcl": "A", "population": 146439, "countryCode": "ID", "name": "Kabupaten Katingan", "fclName": "country, state, region,...", "adminCodes1": {"ISO3166_2": "KT"}, "countryName": "Indonesia", "fcodeName": "second-order administrative division", "adminName1": "Central Kalimantan", "lat": "-2.06667", "fcode": "ADM2", "description": "6209", "xywh": {"x": 2597, "y": 931, "w": 27, "h": 31}}, {"adminCode1": "51", "lng": "24.75", "geonameId": 728193, "toponymName": "Plovdiv", "countryId": "732800", "fcl": "P", "population": 340494, "countryCode": "BG", "name": "Plovdiv", "fclName": "city, village,...", "adminCodes1": {"ISO3166_2": "16"}, "countryName": "Bulgaria", "fcodeName": "seat of a first-order administrative division", "adminName1": "Plovdiv", "lat": "42.15", "fcode": "PPLA", "description": "4000", "xywh": {"x": 426, "y": 957, "w": 30, "h": 12}}, {"adminCode1": "37", "lng": "69.8946", "geonameId": 1424990, "toponymName": "Sabar\u012b", "countryId": "1149361", "fcl": "L", "population": 0, "countryCode": "AF", "name": "Sabar\u012b", "fclName": "parks,area, ...", "adminCodes1": {"ISO3166_2": "KHO"}, "countryName": "Afghanistan", "fcodeName": "locality", "adminName1": "Khowst", "lat": "33.5503", "fcode": "LCTY", "description": "Sabari", "xywh": {"x": 902, "y": 948, "w": 50, "h": 18}}, {"adminCode1": "08", "lng": "49.64266", "geonameId": 130084, "toponymName": "J\u016bk\u016bl Band\u0101n", "countryId": "130758", "fcl": "P", "population": 0, "countryCode": "IR", "name": "J\u016bk\u016bl Band\u0101n", "fclName": "city, village,...", "adminCodes1": {"ISO3166_2": "19"}, "countryName": "Iran", "fcodeName": "populated place", "adminName1": "G\u012bl\u0101n", "lat": "37.10891", "fcode": "PPL", "description": "Bandan", "xywh": {"x": 734, "y": 961, "w": 54, "h": 23}}, {"adminCode1": "00", "lng": "138.17333", "geonameId": 1865191, "toponymName": "Arakawa-dake", "countryId": "1861060", "fcl": "T", "population": 0, "countryCode": "JP", "name": "Arakawa-dake", "fclName": "mountain,hill,rock,... ", "countryName": "Japan", "fcodeName": "mountains", "adminName1": "", "lat": "35.49394", "fcode": "MTS", "description": "Dake", "xywh": {"x": 1174, "y": 949, "w": 27, "h": 20}}, {"adminCode1": "14", "lng": "147.20078", "geonameId": 2096968, "toponymName": "Gilang", "countryId": "2088628", "fcl": "P", "population": 0, "countryCode": "PG", "name": "Gilang", "fclName": "city, village,...", "adminCodes1": {"ISO3166_2": "MPL"}, "countryName": "Papua New Guinea", "fcodeName": "populated place", "adminName1": "Morobe", "lat": "-6.19781", "fcode": "PPL", "description": "Gilang", "xywh": {"x": 1330, "y": 956, "w": 45, "h": 19}}, {"adminCode1": "47", "lng": "23.10112", "geonameId": 732025, "toponymName": "Dondukovo", "countryId": "732800", "fcl": "P", "population": 0, "countryCode": "BG", "name": "Dondukovo", "fclName": "city, village,...", "adminCodes1": {"ISO3166_2": "12"}, "countryName": "Bulgaria", "fcodeName": "populated place", "adminName1": "Montana", "lat": "43.713", "fcode": "PPL", "description": "3659", "xywh": {"x": 504, "y": 967, "w": 28, "h": 15}}, {"adminCode1": "07", "lng": "8.64996", "geonameId": 2882226, "toponymName": "K\u00fcte", "countryId": "2921044", "fcl": "P", "population": 0, "countryCode": "DE", "name": "K\u00fcte", "fclName": "city, village,...", "adminCodes1": {"ISO3166_2": "NW"}, "countryName": "Germany", "fcodeName": "populated locality", "adminName1": "North Rhine-Westphalia", "lat": "52.41102", "fcode": "PPLL", "description": "K\u00fcte", "xywh": {"x": 1462, "y": 960, "w": 33, "h": 18}}, {"adminCode1": "41", "lng": "66.64108", "geonameId": 1136257, "toponymName": "Khw\u0101jah-Ch\u0101sht", "countryId": "1149361", "fcl": "L", "population": 0, "countryCode": "AF", "name": "Khw\u0101jah-Ch\u0101sht", "fclName": "parks,area, ...", "adminCodes1": {"ISO3166_2": "DAY"}, "countryName": "Afghanistan", "fcodeName": "locality", "adminName1": "Daykundi", "lat": "33.70114", "fcode": "LCTY", "description": "KHWAJA", "xywh": {"x": 1504, "y": 960, "w": 43, "h": 18}}, {"adminCode1": "04", "lng": "73.02834", "geonameId": 1181887, "toponymName": "Chak Azam Sahu", "countryId": "1168579", "fcl": "P", "population": 38216, "countryCode": "PK", "name": "Chak Azam Sahu", "fclName": "city, village,...", "adminCodes1": {"ISO3166_2": "PB"}, "countryName": "Pakistan", "fcodeName": "populated place", "adminName1": "Punjab", "lat": "30.75202", "fcode": "PPL", "description": "Chak", "xywh": {"x": 1700, "y": 959, "w": 33, "h": 18}}, {"adminCode1": "71", "lng": "58.48273", "geonameId": 538737, "toponymName": "Kurki", "countryId": "2017370", "fcl": "P", "population": 0, "countryCode": "RU", "name": "Kurki", "fclName": "city, village,...", "adminCodes1": {"ISO3166_2": "SVE"}, "countryName": "Russia", "fcodeName": "populated place", "adminName1": "Sverdlovsk", "lat": "56.49614", "fcode": "PPL", "description": "Kurki", "xywh": {"x": 1752, "y": 959, "w": 41, "h": 18}}, {"adminCode1": "15", "lng": "48.2446", "geonameId": 111670, "toponymName": "Bal\u0101l", "countryId": "130758", "fcl": "P", "population": 0, "countryCode": "IR", "name": "Bal\u0101l", "fclName": "city, village,...", "adminCodes1": {"ISO3166_2": "10"}, "countryName": "Iran", "fcodeName": "populated place", "adminName1": "Khuzestan", "lat": "32.13626", "fcode": "PPL", "description": "Balal", "xywh": {"x": 2100, "y": 961, "w": 36, "h": 18}}, {"adminCode1": "09", "lng": "64.86063", "geonameId": 1461486, "toponymName": "Barakat-Gh\u016bn\u1e0f\u012b", "countryId": "1149361", "fcl": "T", "population": 0, "countryCode": "AF", "name": "Barakat-Gh\u016bn\u1e0f\u012b", "fclName": "mountain,hill,rock,... ", "adminCodes1": {"ISO3166_2": "GHO"}, "countryName": "Afghanistan", "fcodeName": "mountain", "adminName1": "Ghowr", "lat": "33.27014", "fcode": "MT", "description": "Ghundi", "xywh": {"x": 2140, "y": 961, "w": 53, "h": 18}}, {"adminCode1": "04", "lng": "10.01534", "geonameId": 2911298, "toponymName": "Hamburg", "countryId": "2921044", "fcl": "P", "population": 1739117, "countryCode": "DE", "name": "Hamburg", "fclName": "city, village,...", "adminCodes1": {"ISO3166_2": "HH"}, "countryName": "Germany", "fcodeName": "seat of a first-order administrative division", "adminName1": "Hamburg", "lat": "53.57532", "fcode": "PPLA", "description": "02000", "xywh": {"x": 610, "y": 979, "w": 40, "h": 17}}, {"adminCode1": "41", "lng": "66.64108", "geonameId": 1136257, "toponymName": "Khw\u0101jah-Ch\u0101sht", "countryId": "1149361", "fcl": "L", "population": 0, "countryCode": "AF", "name": "Khw\u0101jah-Ch\u0101sht", "fclName": "parks,area, ...", "adminCodes1": {"ISO3166_2": "DAY"}, "countryName": "Afghanistan", "fcodeName": "locality", "adminName1": "Daykundi", "lat": "33.70114", "fcode": "LCTY", "description": "Khwaja", "xywh": {"x": 1190, "y": 981, "w": 50, "h": 18}}, {"adminCode1": "08", "lng": "49.50084", "geonameId": 28969, "toponymName": "P\u0101\u2019\u012bn Ma\u1e29alleh-ye S\u012b\u0101h Gol Vand\u0101n", "countryId": "130758", "fcl": "P", "population": 0, "countryCode": "IR", "name": "P\u0101\u2019\u012bn Ma\u1e29alleh-ye S\u012b\u0101h Gol Vand\u0101n", "fclName": "city, village,...", "adminCodes1": {"ISO3166_2": "19"}, "countryName": "Iran", "fcodeName": "populated place", "adminName1": "G\u012bl\u0101n", "lat": "37.1976", "fcode": "PPL", "description": "Siah", "xywh": {"x": 1251, "y": 981, "w": 28, "h": 17}}, {"adminCode1": "07", "lng": "64.96595", "geonameId": 7052933, "toponymName": "Khw\u0101jah Sabz P\u014dsh", "countryId": "1149361", "fcl": "A", "population": 0, "countryCode": "AF", "name": "Khw\u0101jah Sabz P\u014dsh", "fclName": "country, state, region,...", "adminCodes1": {"ISO3166_2": "FYB"}, "countryName": "Afghanistan", "fcodeName": "second-order administrative division", "adminName1": "Faryab", "lat": "36.05864", "fcode": "ADM2", "description": "Posh", "xywh": {"x": 1291, "y": 981, "w": 20, "h": 17}}, {"adminCode1": "ES", "lng": "6.14694", "geonameId": 2960672, "toponymName": "Crauthem", "countryId": "2960313", "fcl": "P", "population": 1278, "countryCode": "LU", "name": "Crauthem", "fclName": "city, village,...", "adminCodes1": {"ISO3166_2": "ES"}, "countryName": "Luxembourg", "fcodeName": "populated place", "adminName1": "Esch-sur-Alzette", "lat": "49.53556", "fcode": "PPL", "description": "3330", "xywh": {"x": 1450, "y": 980, "w": 27, "h": 17}}, {"adminCode1": "04", "lng": "71.49091", "geonameId": 1409565, "toponymName": "Buch Khusarabad", "countryId": "1168579", "fcl": "P", "population": 0, "countryCode": "PK", "name": "Buch Khusarabad", "fclName": "city, village,...", "adminCodes1": {"ISO3166_2": "PB"}, "countryName": "Pakistan", "fcodeName": "populated place", "adminName1": "Punjab", "lat": "30.28558", "fcode": "PPL", "description": "Khusar\u0101b\u0101d", "xywh": {"x": 1933, "y": 980, "w": 82, "h": 17}}, {"adminCode1": "90", "lng": "56.9348", "geonameId": 8246300, "toponymName": "Kharika", "countryId": "2017370", "fcl": "P", "population": 0, "countryCode": "RU", "name": "Kharika", "fclName": "city, village,...", "adminCodes1": {"ISO3166_2": "PER"}, "countryName": "Russia", "fcodeName": "populated place", "adminName1": "Perm", "lat": "59.6943", "fcode": "PPL", "description": "Kharika", "xywh": {"x": 850, "y": 995, "w": 56, "h": 22}}, {"adminCode1": "MN", "lng": "-93.1616", "geonameId": 5039675, "toponymName": "Northfield", "countryId": "6252001", "fcl": "P", "population": 20380, "countryCode": "US", "name": "Northfield", "fclName": "city, village,...", "adminCodes1": {"ISO3166_2": "MN"}, "countryName": "United States", "fcodeName": "populated place", "adminName1": "Minnesota", "lat": "44.4583", "fcode": "PPL", "description": "46924", "xywh": {"x": 2554, "y": 997, "w": 34, "h": 15}}, {"adminCode1": "00", "lng": "73.13333", "geonameId": 1528314, "toponymName": "Guzar", "countryId": "1527747", "fcl": "P", "population": 0, "countryCode": "KG", "name": "Guzar", "fclName": "city, village,...", "countryName": "Kyrgyzstan", "fcodeName": "populated place", "adminName1": "", "lat": "40.56667", "fcode": "PPL", "description": "Guzar", "xywh": {"x": 1333, "y": 1004, "w": 45, "h": 20}}, {"adminCode1": "04", "lng": "61.2", "geonameId": 1482481, "toponymName": "Shahrest\u0101n-e Kh\u0101sh", "countryId": "130758", "fcl": "A", "population": 173821, "countryCode": "IR", "name": "Shahrest\u0101n-e Kh\u0101sh", "fclName": "country, state, region,...", "adminCodes1": {"ISO3166_2": "13"}, "countryName": "Iran", "fcodeName": "second-order administrative division", "adminName1": "Sistan and Baluchestan", "lat": "28.21667", "fcode": "ADM2", "description": "Khash", "xywh": {"x": 1395, "y": 1003, "w": 39, "h": 19}}, {"adminCode1": "29", "lng": "57.28304", "geonameId": 9073261, "toponymName": "Darreh-ye Kahn\u012b", "countryId": "130758", "fcl": "T", "population": 0, "countryCode": "IR", "name": "Darreh-ye Kahn\u012b", "fclName": "mountain,hill,rock,... ", "adminCodes1": {"ISO3166_2": "15"}, "countryName": "Iran", "fcodeName": "valley", "adminName1": "Kerman", "lat": "29.30381", "fcode": "VAL", "description": "Kahni", "xywh": {"x": 1480, "y": 999, "w": 42, "h": 19}}, {"adminCode1": "03", "lng": "93", "geonameId": 1278253, "toponymName": "Assam", "countryId": "1269750", "fcl": "A", "population": 31205576, "countryCode": "IN", "name": "Assam", "fclName": "country, state, region,...", "adminCodes1": {"ISO3166_2": "AS"}, "countryName": "India", "fcodeName": "first-order administrative division", "adminName1": "Assam", "lat": "26", "fcode": "ADM1", "description": "Asam", "xywh": {"x": 1528, "y": 998, "w": 32, "h": 19}}, {"adminCode1": "01", "lng": "-5.44414", "geonameId": 2550180, "toponymName": "El Haouz", "countryId": "2542007", "fcl": "L", "population": 0, "countryCode": "MA", "name": "El Haouz", "fclName": "parks,area, ...", "adminCodes1": {"ISO3166_2": "01"}, "countryName": "Morocco", "fcodeName": "area", "adminName1": "Tanger-Tetouan-Al Hoceima", "lat": "35.68852", "fcode": "AREA", "description": "Haus", "xywh": {"x": 795, "y": 1024, "w": 38, "h": 25}}, {"adminCode1": "16", "lng": "46.5734", "geonameId": 3897, "toponymName": "Khv\u0101sht", "countryId": "130758", "fcl": "P", "population": 0, "countryCode": "IR", "name": "Khv\u0101sht", "fclName": "city, village,...", "adminCodes1": {"ISO3166_2": "16"}, "countryName": "Iran", "fcodeName": "populated place", "adminName1": "Kordest\u0101n", "lat": "35.2237", "fcode": "PPL", "description": "Khwash", "xywh": {"x": 1317, "y": 1025, "w": 51, "h": 26}}, {"adminCode1": "29", "lng": "55.388", "geonameId": 68836, "toponymName": "Ch\u0101h \u2018Arab\u016byeh", "countryId": "130758", "fcl": "L", "population": 0, "countryCode": "IR", "name": "Ch\u0101h \u2018Arab\u016byeh", "fclName": "parks,area, ...", "adminCodes1": {"ISO3166_2": "15"}, "countryName": "Iran", "fcodeName": "area", "adminName1": "Kerman", "lat": "28.6854", "fcode": "AREA", "description": "Chah", "xywh": {"x": 1798, "y": 1028, "w": 34, "h": 17}}, {"adminCode1": "29", "lng": "55.388", "geonameId": 68836, "toponymName": "Ch\u0101h \u2018Arab\u016byeh", "countryId": "130758", "fcl": "L", "population": 0, "countryCode": "IR", "name": "Ch\u0101h \u2018Arab\u016byeh", "fclName": "parks,area, ...", "adminCodes1": {"ISO3166_2": "15"}, "countryName": "Iran", "fcodeName": "area", "adminName1": "Kerman", "lat": "28.6854", "fcode": "AREA", "description": "Chah", "xywh": {"x": 1297, "y": 1049, "w": 38, "h": 15}}, {"adminCode1": "20", "lng": "-79.45276", "geonameId": 6368475, "toponymName": "Quebrada Sangrin", "countryId": "3932488", "fcl": "H", "population": 0, "countryCode": "PE", "name": "Quebrada Sangrin", "fclName": "stream, lake, ...", "adminCodes1": {"ISO3166_2": "PIU"}, "countryName": "Peru", "fcodeName": "stream", "adminName1": "Piura", "lat": "-5.30295", "fcode": "STM", "description": "Sangrin", "xywh": {"x": 716, "y": 1063, "w": 45, "h": 19}}, {"adminCode1": "29", "lng": "55.388", "geonameId": 68836, "toponymName": "Ch\u0101h \u2018Arab\u016byeh", "countryId": "130758", "fcl": "L", "population": 0, "countryCode": "IR", "name": "Ch\u0101h \u2018Arab\u016byeh", "fclName": "parks,area, ...", "adminCodes1": {"ISO3166_2": "15"}, "countryName": "Iran", "fcodeName": "area", "adminName1": "Kerman", "lat": "28.6854", "fcode": "AREA", "description": "Ch\u00e5h", "xywh": {"x": 772, "y": 1065, "w": 33, "h": 18}}, {"adminCode1": "41", "lng": "66.14473", "geonameId": 1129790, "toponymName": "Qal\u2018ah-ye Surkh", "countryId": "1149361", "fcl": "P", "population": 0, "countryCode": "AF", "name": "Qal\u2018ah-ye Surkh", "fclName": "city, village,...", "adminCodes1": {"ISO3166_2": "DAY"}, "countryName": "Afghanistan", "fcodeName": "populated place", "adminName1": "Daykundi", "lat": "34.23504", "fcode": "PPL", "description": "Surkh", "xywh": {"x": 1978, "y": 1054, "w": 38, "h": 17}}, {"adminCode1": "19", "lng": "62.5", "geonameId": 1131821, "toponymName": "Wil\u0101yat-e N\u012bmr\u014dz", "countryId": "1149361", "fcl": "A", "population": 234086, "countryCode": "AF", "name": "Nimroz", "fclName": "country, state, region,...", "adminCodes1": {"ISO3166_2": "NIM"}, "countryName": "Afghanistan", "fcodeName": "first-order administrative division", "adminName1": "Nimroz", "lat": "31", "fcode": "ADM1", "description": "Chakansur", "xywh": {"x": 1164, "y": 1057, "w": 79, "h": 20}}, {"adminCode1": "19", "lng": "32.28411", "geonameId": 358619, "toponymName": "Port Said", "countryId": "357994", "fcl": "P", "population": 538378, "countryCode": "EG", "name": "Port Said", "fclName": "city, village,...", "adminCodes1": {"ISO3166_2": "PTS"}, "countryName": "Egypt", "fcodeName": "seat of a first-order administrative division", "adminName1": "Port Said", "lat": "31.25654", "fcode": "PPLA", "description": "Said", "xywh": {"x": 1296, "y": 1060, "w": 27, "h": 15}}, {"adminCode1": "04", "lng": "70.30345", "geonameId": 1167460, "toponymName": "Rahim Yar Khan", "countryId": "1168579", "fcl": "P", "population": 788915, "countryCode": "PK", "name": "Rahim Yar Khan", "fclName": "city, village,...", "adminCodes1": {"ISO3166_2": "PB"}, "countryName": "Pakistan", "fcodeName": "seat of a second-order administrative division", "adminName1": "Punjab", "lat": "28.41987", "fcode": "PPLA2", "description": "Khan", "xywh": {"x": 1333, "y": 1060, "w": 34, "h": 15}}, {"adminCode1": "29", "lng": "69.09783", "geonameId": 1434260, "toponymName": "Akhtar\u014d K\u00ealay", "countryId": "1149361", "fcl": "P", "population": 0, "countryCode": "AF", "name": "Akhtar\u014d K\u00ealay", "fclName": "city, village,...", "adminCodes1": {"ISO3166_2": "PKA"}, "countryName": "Afghanistan", "fcodeName": "populated place", "adminName1": "Paktika", "lat": "32.85686", "fcode": "PPL", "description": "Akhtaro", "xywh": {"x": 2471, "y": 1061, "w": 52, "h": 16}}, {"adminCode1": "00", "lng": "19.06278", "geonameId": 3317090, "toponymName": "Osta\u0161", "countryId": "3194884", "fcl": "T", "population": 0, "countryCode": "ME", "name": "Osta\u0161", "fclName": "mountain,hill,rock,... ", "countryName": "Montenegro", "fcodeName": "mountain", "adminName1": "", "lat": "42.49306", "fcode": "MT", "description": "Ost\u0101s", "xywh": {"x": 2212, "y": 1070, "w": 34, "h": 21}}, {"adminCode1": "NCR", "lng": "121.0792", "geonameId": 1684308, "toponymName": "Taguig", "countryId": "1694008", "fcl": "P", "population": 644473, "countryCode": "PH", "name": "Taguig", "fclName": "city, village,...", "adminCodes1": {"ISO3166_2": "00"}, "countryName": "Philippines", "fcodeName": "seat of a third-order administrative division", "adminName1": "National Capital Region", "lat": "14.5243", "fcode": "PPLA3", "description": "1638", "xywh": {"x": 1209, "y": 1086, "w": 23, "h": 13}}, {"adminCode1": "41", "lng": "57.75807", "geonameId": 66110, "toponymName": "Daqq-e Shand-e \u2018Al\u012bre\u1e95\u0101kh\u0101n", "countryId": "130758", "fcl": "L", "population": 0, "countryCode": "IR", "name": "Daqq-e Shand-e \u2018Al\u012bre\u1e95\u0101kh\u0101n", "fclName": "parks,area, ...", "adminCodes1": {"ISO3166_2": "29"}, "countryName": "Iran", "fcodeName": "salt area", "adminName1": "Khor\u0101s\u0101n-e Jon\u016bb\u012b", "lat": "32.34902", "fcode": "SALT", "description": "Shand", "xywh": {"x": 1479, "y": 1087, "w": 38, "h": 16}}, {"adminCode1": "38", "lng": "38.9749", "geonameId": 867729, "toponymName": "Urochishche Madel\u2019", "countryId": "2017370", "fcl": "L", "population": 0, "countryCode": "RU", "name": "Urochishche Madel\u2019", "fclName": "parks,area, ...", "adminCodes1": {"ISO3166_2": "KDA"}, "countryName": "Russia", "fcodeName": "area", "adminName1": "Krasnodarskiy", "lat": "44.4142", "fcode": "AREA", "description": "Madel", "xywh": {"x": 576, "y": 1097, "w": 40, "h": 15}}, {"adminCode1": "07", "lng": "4.88969", "geonameId": 2759794, "toponymName": "Amsterdam", "countryId": "2750405", "fcl": "P", "population": 741636, "countryCode": "NL", "name": "Amsterdam", "fclName": "city, village,...", "adminCodes1": {"ISO3166_2": "NH"}, "countryName": "Netherlands", "fcodeName": "capital of a political entity", "adminName1": "North Holland", "lat": "52.37403", "fcode": "PPLC", "description": "1022", "xywh": {"x": 878, "y": 1095, "w": 27, "h": 15}}, {"adminCode1": "23", "lng": "1.18611", "geonameId": 2366152, "toponymName": "Kara", "countryId": "2363686", "fcl": "P", "population": 104207, "countryCode": "TG", "name": "Kara", "fclName": "city, village,...", "adminCodes1": {"ISO3166_2": "K"}, "countryName": "Togo", "fcodeName": "seat of a first-order administrative division", "adminName1": "Kara", "lat": "9.55111", "fcode": "PPLA", "description": "Kala", "xywh": {"x": 1144, "y": 1099, "w": 27, "h": 19}}, {"adminCode1": "23", "lng": "65.09884", "geonameId": 1139125, "toponymName": "Juft Sh\u0101h R\u0113g", "countryId": "1149361", "fcl": "T", "population": 0, "countryCode": "AF", "name": "Juft Sh\u0101h R\u0113g", "fclName": "mountain,hill,rock,... ", "adminCodes1": {"ISO3166_2": "KAN"}, "countryName": "Afghanistan", "fcodeName": "dune(s)", "adminName1": "Kandahar", "lat": "30.98083", "fcode": "DUNE", "description": "Juft", "xywh": {"x": 2029, "y": 1099, "w": 25, "h": 17}}, {"adminCode1": "15", "lng": "90.07304", "geonameId": 7302311, "toponymName": "Kangphu Kang I", "countryId": "1252634", "fcl": "T", "population": 0, "countryCode": "BT", "name": "Kangphu Kang I", "fclName": "mountain,hill,rock,... ", "adminCodes1": {"ISO3166_2": "23"}, "countryName": "Bhutan", "fcodeName": "mountain", "adminName1": "Punakha", "lat": "28.15616", "fcode": "MT", "description": "Kang", "xywh": {"x": 1194, "y": 1099, "w": 35, "h": 21}}, {"adminCode1": "39", "lng": "80.10828", "geonameId": 11061175, "toponymName": "Malli Khol\u012b", "countryId": "1269750", "fcl": "L", "population": 0, "countryCode": "IN", "name": "Malli Khol\u012b", "fclName": "parks,area, ...", "adminCodes1": {"ISO3166_2": "UT"}, "countryName": "India", "fcodeName": "locality", "adminName1": "Uttarakhand", "lat": "29.18425", "fcode": "LCTY", "description": "Kholi", "xywh": {"x": 2433, "y": 1093, "w": 37, "h": 21}}, {"adminCode1": "43", "lng": "38.26488", "geonameId": 551535, "toponymName": "Kazaki", "countryId": "2017370", "fcl": "P", "population": 3227, "countryCode": "RU", "name": "Kazaki", "fclName": "city, village,...", "adminCodes1": {"ISO3166_2": "LIP"}, "countryName": "Russia", "fcodeName": "populated place", "adminName1": "Lipetsk Oblast", "lat": "52.62484", "fcode": "PPL", "description": "Kazaki", "xywh": {"x": 2478, "y": 1093, "w": 46, "h": 21}}, {"adminCode1": "03", "lng": "50.33677", "geonameId": 121408, "toponymName": "Par Jaft", "countryId": "130758", "fcl": "S", "population": 0, "countryCode": "IR", "name": "Par Jaft", "fclName": "spot, building, farm", "adminCodes1": {"ISO3166_2": "08"}, "countryName": "Iran", "fcodeName": "camp(s)", "adminName1": "Chaharmahal and Bakhtiari", "lat": "32.25", "fcode": "CMP", "description": "Jaft", "xywh": {"x": 2333, "y": 1101, "w": 26, "h": 18}}, {"adminCode1": "10", "lng": "-14.22222", "geonameId": 2372532, "toponymName": "Gab\u00fa", "countryId": "2372248", "fcl": "P", "population": 14430, "countryCode": "GW", "name": "Gab\u00fa", "fclName": "city, village,...", "adminCodes1": {"ISO3166_2": "GA"}, "countryName": "Guinea-Bissau", "fcodeName": "seat of a first-order administrative division", "adminName1": "Gab\u00fa", "lat": "12.28", "fcode": "PPLA", "description": "Sara", "xywh": {"x": 2368, "y": 1101, "w": 28, "h": 18}}, {"adminCode1": "MQ", "lng": "-61.07418", "geonameId": 3570675, "toponymName": "Fort-de-France", "countryId": "3570311", "fcl": "P", "population": 89995, "countryCode": "MQ", "name": "Fort-de-France", "fclName": "city, village,...", "countryName": "Martinique", "fcodeName": "capital of a political entity", "adminName1": "Martinique", "lat": "14.60365", "fcode": "PPLC", "description": "Fort", "xywh": {"x": 2206, "y": 1109, "w": 30, "h": 17}}, {"adminCode1": "05", "lng": "139.81667", "geonameId": 2065081, "toponymName": "Naidia", "countryId": "2077456", "fcl": "P", "population": 0, "countryCode": "AU", "name": "Naidia", "fclName": "city, village,...", "adminCodes1": {"ISO3166_2": "SA"}, "countryName": "Australia", "fcodeName": "populated place", "adminName1": "South Australia", "lat": "-34.51667", "fcode": "PPL", "description": "Naidia", "xywh": {"x": 880, "y": 1119, "w": 40, "h": 21}}, {"adminCode1": "06", "lng": "5.0913", "geonameId": 2746301, "toponymName": "Tilburg", "countryId": "2750405", "fcl": "P", "population": 199613, "countryCode": "NL", "name": "Tilburg", "fclName": "city, village,...", "adminCodes1": {"ISO3166_2": "NB"}, "countryName": "Netherlands", "fcodeName": "populated place", "adminName1": "North Brabant", "lat": "51.55551", "fcode": "PPL", "description": "5041", "xywh": {"x": 568, "y": 1130, "w": 29, "h": 11}}, {"adminCode1": "29", "lng": "68.42749", "geonameId": 1140572, "toponymName": "Guld\u0101d", "countryId": "1149361", "fcl": "P", "population": 0, "countryCode": "AF", "name": "Guld\u0101d", "fclName": "city, village,...", "adminCodes1": {"ISO3166_2": "PKA"}, "countryName": "Afghanistan", "fcodeName": "populated place", "adminName1": "Paktika", "lat": "32.7653", "fcode": "PPL", "description": "Guldad", "xywh": {"x": 2013, "y": 1119, "w": 49, "h": 17}}, {"adminCode1": "08", "lng": "49.50084", "geonameId": 28969, "toponymName": "P\u0101\u2019\u012bn Ma\u1e29alleh-ye S\u012b\u0101h Gol Vand\u0101n", "countryId": "130758", "fcl": "P", "population": 0, "countryCode": "IR", "name": "P\u0101\u2019\u012bn Ma\u1e29alleh-ye S\u012b\u0101h Gol Vand\u0101n", "fclName": "city, village,...", "adminCodes1": {"ISO3166_2": "19"}, "countryName": "Iran", "fcodeName": "populated place", "adminName1": "G\u012bl\u0101n", "lat": "37.1976", "fcode": "PPL", "description": "Siah", "xywh": {"x": 794, "y": 1141, "w": 30, "h": 17}}, {"adminCode1": "05", "lng": "177.41617", "geonameId": 2202064, "toponymName": "Nadi", "countryId": "2205218", "fcl": "P", "population": 42284, "countryCode": "FJ", "name": "Nadi", "fclName": "city, village,...", "adminCodes1": {"ISO3166_2": "W"}, "countryName": "Fiji", "fcodeName": "populated place", "adminName1": "Western", "lat": "-17.80309", "fcode": "PPL", "description": "Nadi", "xywh": {"x": 1139, "y": 1149, "w": 43, "h": 21}}, {"adminCode1": "13", "lng": "69.72493", "geonameId": 1473085, "toponymName": "Daguna", "countryId": "1149361", "fcl": "P", "population": 0, "countryCode": "AF", "name": "Daguna", "fclName": "city, village,...", "adminCodes1": {"ISO3166_2": "KAB"}, "countryName": "Afghanistan", "fcodeName": "populated place", "adminName1": "Kabul", "lat": "34.57729", "fcode": "PPL", "description": "Daguna", "xywh": {"x": 2389, "y": 1141, "w": 49, "h": 18}}, {"adminCode1": "04", "lng": "60.5265", "geonameId": 1159660, "toponymName": "Sef\u012bd\u0101beh", "countryId": "130758", "fcl": "P", "population": 0, "countryCode": "IR", "name": "Sef\u012bd\u0101beh", "fclName": "city, village,...", "adminCodes1": {"ISO3166_2": "13"}, "countryName": "Iran", "fcodeName": "populated place", "adminName1": "Sistan and Baluchestan", "lat": "30.9771", "fcode": "PPL", "description": "Safid\u0101v\u0101", "xywh": {"x": 596, "y": 1160, "w": 60, "h": 17}}, {"adminCode1": "41", "lng": "66.64108", "geonameId": 1136257, "toponymName": "Khw\u0101jah-Ch\u0101sht", "countryId": "1149361", "fcl": "L", "population": 0, "countryCode": "AF", "name": "Khw\u0101jah-Ch\u0101sht", "fclName": "parks,area, ...", "adminCodes1": {"ISO3166_2": "DAY"}, "countryName": "Afghanistan", "fcodeName": "locality", "adminName1": "Daykundi", "lat": "33.70114", "fcode": "LCTY", "description": "KHWAJA", "xywh": {"x": 877, "y": 1166, "w": 44, "h": 18}}, {"adminCode1": "10", "lng": "13.38333", "geonameId": 2228399, "toponymName": "Margol", "countryId": "2233387", "fcl": "P", "population": 0, "countryCode": "CM", "name": "Margol", "fclName": "city, village,...", "adminCodes1": {"ISO3166_2": "AD"}, "countryName": "Cameroon", "fcodeName": "populated place", "adminName1": "Adamaoua", "lat": "7.43333", "fcode": "PPL", "description": "MARGOL", "xywh": {"x": 1669, "y": 1158, "w": 243, "h": 26}}, {"adminCode1": "08", "lng": "73.04329", "geonameId": 1176615, "toponymName": "Islamabad", "countryId": "1168579", "fcl": "P", "population": 601600, "countryCode": "PK", "name": "Islamabad", "fclName": "city, village,...", "adminCodes1": {"ISO3166_2": "IS"}, "countryName": "Pakistan", "fcodeName": "capital of a political entity", "adminName1": "Islamabad", "lat": "33.72148", "fcode": "PPLC", "description": "Aslam", "xywh": {"x": 2079, "y": 1156, "w": 37, "h": 20}}, {"adminCode1": "84", "lng": "108.44214", "geonameId": 8668691, "toponymName": "X\u00e3 Tam \u0110\u00e0n", "countryId": "1562822", "fcl": "A", "population": 0, "countryCode": "VN", "name": "X\u00e3 Tam \u0110\u00e0n", "fclName": "country, state, region,...", "adminCodes1": {"ISO3166_2": "27"}, "countryName": "Vietnam", "fcodeName": "third-order administrative division", "adminName1": "Qu\u1ea3ng Nam", "lat": "15.56872", "fcode": "ADM3", "description": "20374", "xywh": {"x": 876, "y": 1183, "w": 44, "h": 18}}, {"adminCode1": "04", "lng": "61.3973", "geonameId": 1161522, "toponymName": "Cheleng", "countryId": "130758", "fcl": "P", "population": 0, "countryCode": "IR", "name": "Cheleng", "fclName": "city, village,...", "adminCodes1": {"ISO3166_2": "13"}, "countryName": "Iran", "fcodeName": "populated place", "adminName1": "Sistan and Baluchestan", "lat": "30.8975", "fcode": "PPL", "description": "Chilling", "xywh": {"x": 942, "y": 1184, "w": 54, "h": 18}}, {"adminCode1": "23", "lng": "66.27833", "geonameId": 1465079, "toponymName": "Burj \u1e0ean\u1e0fah", "countryId": "1149361", "fcl": "L", "population": 0, "countryCode": "AF", "name": "Burj \u1e0ean\u1e0fah", "fclName": "parks,area, ...", "adminCodes1": {"ISO3166_2": "KAN"}, "countryName": "Afghanistan", "fcodeName": "area", "adminName1": "Kandahar", "lat": "30.64083", "fcode": "AREA", "description": "Burj", "xywh": {"x": 1004, "y": 1184, "w": 31, "h": 18}}, {"adminCode1": "02", "lng": "68.97307", "geonameId": 8221279, "toponymName": "Nohiyai Sarband", "countryId": "1220409", "fcl": "A", "population": 0, "countryCode": "TJ", "name": "Sarband District", "fclName": "country, state, region,...", "adminCodes1": {"ISO3166_2": "KT"}, "countryName": "Tajikistan", "fcodeName": "second-order administrative division", "adminName1": "Khatlon", "lat": "37.95331", "fcode": "ADM2", "description": "Sarband", "xywh": {"x": 1054, "y": 1184, "w": 54, "h": 19}}, {"adminCode1": "37", "lng": "69.63279", "geonameId": 1138361, "toponymName": "K\u0101mr\u0101n", "countryId": "1149361", "fcl": "P", "population": 0, "countryCode": "AF", "name": "K\u0101mr\u0101n", "fclName": "city, village,...", "adminCodes1": {"ISO3166_2": "KHO"}, "countryName": "Afghanistan", "fcodeName": "populated place", "adminName1": "Khowst", "lat": "33.48921", "fcode": "PPL", "description": "Kamran", "xywh": {"x": 1153, "y": 1185, "w": 56, "h": 18}}, {"adminCode1": "33", "lng": "47.65094", "geonameId": 10348959, "toponymName": "K\u016bh-e Qo\u0163\u016br", "countryId": "130758", "fcl": "T", "population": 0, "countryCode": "IR", "name": "K\u016bh-e Qo\u0163\u016br", "fclName": "mountain,hill,rock,... ", "adminCodes1": {"ISO3166_2": "01"}, "countryName": "Iran", "fcodeName": "mountain", "adminName1": "East Azerbaijan", "lat": "38.20045", "fcode": "MT", "description": "Chakil", "xywh": {"x": 1235, "y": 1185, "w": 45, "h": 19}}, {"adminCode1": "23", "lng": "66.27833", "geonameId": 1465079, "toponymName": "Burj \u1e0ean\u1e0fah", "countryId": "1149361", "fcl": "L", "population": 0, "countryCode": "AF", "name": "Burj \u1e0ean\u1e0fah", "fclName": "parks,area, ...", "adminCodes1": {"ISO3166_2": "KAN"}, "countryName": "Afghanistan", "fcodeName": "area", "adminName1": "Kandahar", "lat": "30.64083", "fcode": "AREA", "description": "Burj", "xywh": {"x": 1287, "y": 1186, "w": 31, "h": 18}}, {"adminCode1": "03", "lng": "71.4389", "geonameId": 1333760, "toponymName": "Sarfaraz Kili", "countryId": "1168579", "fcl": "P", "population": 0, "countryCode": "PK", "name": "Sarfaraz Kili", "fclName": "city, village,...", "adminCodes1": {"ISO3166_2": "KP"}, "countryName": "Pakistan", "fcodeName": "populated place", "adminName1": "Khyber Pakhtunkhwa", "lat": "34.15969", "fcode": "PPL", "description": "Sarfaraz", "xywh": {"x": 2568, "y": 1183, "w": 58, "h": 21}}, {"adminCode1": "44", "lng": "51.0657", "geonameId": 406441, "toponymName": "K\u016bhak", "countryId": "130758", "fcl": "P", "population": 0, "countryCode": "IR", "name": "K\u016bhak", "fclName": "city, village,...", "adminCodes1": {"ISO3166_2": "32"}, "countryName": "Iran", "fcodeName": "populated place", "adminName1": "Alborz", "lat": "35.7404", "fcode": "PPL", "description": "Kuhak", "xywh": {"x": 1121, "y": 1227, "w": 45, "h": 18}}, {"adminCode1": "04", "lng": "72.35679", "geonameId": 1170486, "toponymName": "Mian Channun", "countryId": "1168579", "fcl": "P", "population": 76226, "countryCode": "PK", "name": "Mian Channu", "fclName": "city, village,...", "adminCodes1": {"ISO3166_2": "PB"}, "countryName": "Pakistan", "fcodeName": "populated place", "adminName1": "Punjab", "lat": "30.44067", "fcode": "PPL", "description": "Mian", "xywh": {"x": 1940, "y": 1217, "w": 33, "h": 19}}, {"adminCode1": "14", "lng": "69.70822", "geonameId": 1429601, "toponymName": "Pushtah", "countryId": "1149361", "fcl": "P", "population": 0, "countryCode": "AF", "name": "Pushtah", "fclName": "city, village,...", "adminCodes1": {"ISO3166_2": "KAP"}, "countryName": "Afghanistan", "fcodeName": "populated place", "adminName1": "Kapisa", "lat": "35.07534", "fcode": "PPL", "description": "Pushta", "xywh": {"x": 1984, "y": 1214, "w": 45, "h": 20}}, {"adminCode1": "25", "lng": "43.90233", "geonameId": 7356400, "toponymName": "T\u016btar", "countryId": "69543", "fcl": "P", "population": 0, "countryCode": "YE", "name": "T\u016btar", "fclName": "city, village,...", "adminCodes1": {"ISO3166_2": "TA"}, "countryName": "Yemen", "fcodeName": "populated place", "adminName1": "Ta\u2018izz", "lat": "13.51115", "fcode": "PPL", "description": "Tutar", "xywh": {"x": 927, "y": 1233, "w": 41, "h": 23}}, {"adminCode1": "37", "lng": "70.06694", "geonameId": 1452692, "toponymName": "\u2018Al\u012b Sh\u0113r", "countryId": "1149361", "fcl": "L", "population": 0, "countryCode": "AF", "name": "\u2018Al\u012b Sh\u0113r", "fclName": "parks,area, ...", "adminCodes1": {"ISO3166_2": "KHO"}, "countryName": "Afghanistan", "fcodeName": "locality", "adminName1": "Khowst", "lat": "33.43111", "fcode": "LCTY", "description": "Sher", "xywh": {"x": 2159, "y": 1230, "w": 28, "h": 19}}, {"adminCode1": "04", "lng": "70.30345", "geonameId": 1167460, "toponymName": "Rahim Yar Khan", "countryId": "1168579", "fcl": "P", "population": 788915, "countryCode": "PK", "name": "Rahim Yar Khan", "fclName": "city, village,...", "adminCodes1": {"ISO3166_2": "PB"}, "countryName": "Pakistan", "fcodeName": "seat of a second-order administrative division", "adminName1": "Punjab", "lat": "28.41987", "fcode": "PPLA2", "description": "Khan", "xywh": {"x": 2196, "y": 1232, "w": 32, "h": 18}}, {"adminCode1": "23", "lng": "64.55461", "geonameId": 1139789, "toponymName": "J\u0101d\u014d", "countryId": "1149361", "fcl": "T", "population": 0, "countryCode": "AF", "name": "J\u0101d\u014d", "fclName": "mountain,hill,rock,... ", "adminCodes1": {"ISO3166_2": "KAN"}, "countryName": "Afghanistan", "fcodeName": "hill", "adminName1": "Kandahar", "lat": "29.7349", "fcode": "HLL", "description": "Jado", "xywh": {"x": 2583, "y": 1225, "w": 29, "h": 18}}, {"adminCode1": "43", "lng": "57.93123", "geonameId": 7381487, "toponymName": "Gam\u012b Am\u012br\u0101nl\u016b", "countryId": "130758", "fcl": "P", "population": 0, "countryCode": "IR", "name": "Gam\u012b Am\u012br\u0101nl\u016b", "fclName": "city, village,...", "adminCodes1": {"ISO3166_2": "31"}, "countryName": "Iran", "fcodeName": "populated place", "adminName1": "Khor\u0101s\u0101n-e Shom\u0101l\u012b", "lat": "37.60358", "fcode": "PPL", "description": "GAMI", "xywh": {"x": 506, "y": 1248, "w": 27, "h": 12}}, {"adminCode1": "09", "lng": "64.66939", "geonameId": 1120499, "toponymName": "\u0100q\u0101-Gumbad", "countryId": "1149361", "fcl": "T", "population": 0, "countryCode": "AF", "name": "\u0100q\u0101-Gumbad", "fclName": "mountain,hill,rock,... ", "adminCodes1": {"ISO3166_2": "GHO"}, "countryName": "Afghanistan", "fcodeName": "valley", "adminName1": "Ghowr", "lat": "34.62366", "fcode": "VAL", "description": "Gumbad", "xywh": {"x": 723, "y": 1258, "w": 56, "h": 16}}, {"adminCode1": "23", "lng": "-51.17944", "geonameId": 3466537, "toponymName": "Caxias do Sul", "countryId": "3469034", "fcl": "P", "population": 381270, "countryCode": "BR", "name": "Caxias do Sul", "fclName": "city, village,...", "adminCodes1": {"ISO3166_2": "RS"}, "countryName": "Brazil", "fcodeName": "populated place", "adminName1": "Rio Grande do Sul", "lat": "-29.16806", "fcode": "PPL", "description": "Kasijas", "xywh": {"x": 802, "y": 1258, "w": 50, "h": 16}}, {"adminCode1": "04", "lng": "73.6374", "geonameId": 1180004, "toponymName": "Dhiranke Sardadke", "countryId": "1168579", "fcl": "P", "population": 0, "countryCode": "PK", "name": "Dhiranke Sardadke", "fclName": "city, village,...", "adminCodes1": {"ISO3166_2": "PB"}, "countryName": "Pakistan", "fcodeName": "populated place", "adminName1": "Punjab", "lat": "32.14176", "fcode": "PPL", "description": "Lalki", "xywh": {"x": 1934, "y": 1252, "w": 37, "h": 18}}, {"adminCode1": "04", "lng": "61.3378", "geonameId": 1159332, "toponymName": "Varm\u0101l", "countryId": "130758", "fcl": "P", "population": 0, "countryCode": "IR", "name": "Varm\u0101l", "fclName": "city, village,...", "adminCodes1": {"ISO3166_2": "13"}, "countryName": "Iran", "fcodeName": "populated place", "adminName1": "Sistan and Baluchestan", "lat": "30.7511", "fcode": "PPL", "description": "Varmal", "xywh": {"x": 947, "y": 1272, "w": 55, "h": 20}}, {"adminCode1": "18", "lng": "-55.43594", "geonameId": 3383363, "toponymName": "Pada", "countryId": "3382998", "fcl": "P", "population": 0, "countryCode": "SR", "name": "Pada", "fclName": "city, village,...", "adminCodes1": {"ISO3166_2": "SI"}, "countryName": "Suriname", "fcodeName": "populated place", "adminName1": "Sipaliwini", "lat": "4.17754", "fcode": "PPL", "description": "Pada", "xywh": {"x": 1141, "y": 1280, "w": 31, "h": 21}}, {"adminCode1": "05", "lng": "71.44598", "geonameId": 1526273, "toponymName": "Nur-Sultan", "countryId": "1522867", "fcl": "P", "population": 345604, "countryCode": "KZ", "name": "Nur-Sultan", "fclName": "city, village,...", "adminCodes1": {"ISO3166_2": "AST"}, "countryName": "Kazakhstan", "fcodeName": "capital of a political entity", "adminName1": "Nur-Sultan", "lat": "51.1801", "fcode": "PPLC", "description": "Sultan", "xywh": {"x": 1194, "y": 1280, "w": 42, "h": 21}}, {"adminCode1": "11", "lng": "62.22167", "geonameId": 1472231, "toponymName": "Takht-e \u015eafar", "countryId": "1149361", "fcl": "L", "population": 0, "countryCode": "AF", "name": "Takht-e \u015eafar", "fclName": "parks,area, ...", "adminCodes1": {"ISO3166_2": "HER"}, "countryName": "Afghanistan", "fcodeName": "park", "adminName1": "Herat", "lat": "34.37177", "fcode": "PRK", "description": "Safar", "xywh": {"x": 1912, "y": 1281, "w": 39, "h": 22}}, {"adminCode1": "BE", "lng": "7.44744", "geonameId": 2661552, "toponymName": "Bern", "countryId": "2658434", "fcl": "P", "population": 121631, "countryCode": "CH", "name": "Bern", "fclName": "city, village,...", "adminCodes1": {"ISO3166_2": "BE"}, "countryName": "Switzerland", "fcodeName": "capital of a political entity", "adminName1": "Bern", "lat": "46.94809", "fcode": "PPLC", "description": "3000", "xywh": {"x": 421, "y": 1294, "w": 29, "h": 18}}, {"adminCode1": "41", "lng": "66.14473", "geonameId": 1129790, "toponymName": "Qal\u2018ah-ye Surkh", "countryId": "1149361", "fcl": "P", "population": 0, "countryCode": "AF", "name": "Qal\u2018ah-ye Surkh", "fclName": "city, village,...", "adminCodes1": {"ISO3166_2": "DAY"}, "countryName": "Afghanistan", "fcodeName": "populated place", "adminName1": "Daykundi", "lat": "34.23504", "fcode": "PPL", "description": "Surkh", "xywh": {"x": 791, "y": 1296, "w": 39, "h": 18}}, {"adminCode1": "03", "lng": "30.46649", "geonameId": 376930, "toponymName": "Chath Akol", "countryId": "7909807", "fcl": "P", "population": 0, "countryCode": "SS", "name": "Chath Akol", "fclName": "city, village,...", "countryName": "South Sudan", "fcodeName": "populated place", "adminName1": "SS.03", "lat": "9.16239", "fcode": "PPL", "description": "Chath", "xywh": {"x": 943, "y": 1307, "w": 33, "h": 14}}, {"adminCode1": "09", "lng": "51.40647", "geonameId": 289523, "toponymName": "Umm \u015eal\u0101l Mu\u1e29ammad", "countryId": "289688", "fcl": "P", "population": 29391, "countryCode": "QA", "name": "Umm \u015eal\u0101l Mu\u1e29ammad", "fclName": "city, village,...", "adminCodes1": {"ISO3166_2": "US"}, "countryName": "Qatar", "fcodeName": "populated place", "adminName1": "Balad\u012byat Umm \u015eal\u0101l", "lat": "25.41524", "fcode": "PPL", "description": "Muhammad", "xywh": {"x": 996, "y": 1307, "w": 85, "h": 14}}, {"adminCode1": "10", "lng": "-74.50621", "geonameId": 6299914, "toponymName": "Gustavo Rizo Airport", "countryId": "3562981", "fcl": "S", "population": 0, "countryCode": "CU", "name": "Gustavo Rizo Airport", "fclName": "spot, building, farm", "adminCodes1": {"ISO3166_2": "14"}, "countryName": "Cuba", "fcodeName": "airport", "adminName1": "Guant\u00e1namo", "lat": "20.36532", "fcode": "AIRP", "description": "Rizo", "xywh": {"x": 1088, "y": 1307, "w": 29, "h": 14}},