[{"adminCode1": "06", "lng": "62.5", "geonameId": 1142263, "toponymName": "Far\u0101h", "countryId": "1149361", "fcl": "A", "population": 470939, "countryCode": "AF", "name": "Farah", "fclName": "country, state, region,...", "adminCodes1": {"ISO3166_2": "FRA"}, "countryName": "Afghanistan", "fcodeName": "first-order administrative division", "adminName1": "Farah", "lat": "32.5", "fcode": "ADM1", "description": "FARAH", "xywh": {"x": 1222, "y": 481, "w": 97, "h": 37}}, {"lng": "78.66211", "geonameId": 7729895, "name": "Southern Asia", "fclName": "parks,area, ...", "toponymName": "Southern Asia", "fcodeName": "region", "adminName1": "", "lat": "21.28937", "fcl": "L", "fcode": "RGN", "population": 1702000000, "description": "SOUTHERN", "xywh": {"x": 2332, "y": 509, "w": 248, "h": 48}}, {"adminCode1": "TN", "lng": "-83.00294", "geonameId": 4648866, "toponymName": "Persia", "countryId": "6252001", "fcl": "P", "population": 0, "countryCode": "US", "name": "Persia", "fclName": "city, village,...", "adminCodes1": {"ISO3166_2": "TN"}, "countryName": "United States", "fcodeName": "populated place", "adminName1": "Tennessee", "lat": "36.33982", "fcode": "PPL", "description": "PERSIA", "xywh": {"x": 476, "y": 575, "w": 86, "h": 31}}, {"adminCode1": "00", "lng": "66", "geonameId": 1149361, "toponymName": "Islamic Republic of Afghanistan", "countryId": "1149361", "fcl": "A", "population": 29121286, "countryCode": "AF", "name": "Afghanistan", "fclName": "country, state, region,...", "countryName": "Afghanistan", "fcodeName": "independent political entity", "adminName1": "", "lat": "33", "fcode": "PCLI", "description": "AFGH\u0100NIST\u0100N", "xywh": {"x": 583, "y": 576, "w": 185, "h": 33}}, {"lng": "-68", "geonameId": 3574922, "name": "British West Indies", "fclName": "mountain,hill,rock,... ", "toponymName": "British West Indies", "fcodeName": "islands", "adminName1": "", "lat": "18", "fcl": "T", "fcode": "ISLS", "population": 0, "description": "BRITISH", "xywh": {"x": 815, "y": 580, "w": 99, "h": 31}}, {"adminCode1": "00", "lng": "79", "geonameId": 1269750, "toponymName": "Republic of India", "countryId": "1269750", "fcl": "A", "population": 1173108018, "countryCode": "IN", "name": "India", "fclName": "country, state, region,...", "countryName": "India", "fcodeName": "independent political entity", "adminName1": "", "lat": "22", "fcode": "PCLI", "description": "INDIA", "xywh": {"x": 935, "y": 582, "w": 68, "h": 30}}, {"adminCode1": "06", "lng": "62.5", "geonameId": 1142263, "toponymName": "Far\u0101h", "countryId": "1149361", "fcl": "A", "population": 470939, "countryCode": "AF", "name": "Farah", "fclName": "country, state, region,...", "adminCodes1": {"ISO3166_2": "FRA"}, "countryName": "Afghanistan", "fcodeName": "first-order administrative division", "adminName1": "Farah", "lat": "32.5", "fcode": "ADM1", "description": "Farah", "xywh": {"x": 1094, "y": 669, "w": 32, "h": 40}}, {"adminCode1": "02", "lng": "11.81303", "geonameId": 6790725, "toponymName": "Dilaram", "countryId": "2440476", "fcl": "T", "population": 0, "countryCode": "NE", "name": "Dilaram", "fclName": "mountain,hill,rock,... ", "adminCodes1": {"ISO3166_2": "2"}, "countryName": "Niger", "fcodeName": "depression(s)", "adminName1": "Diffa", "lat": "13.80034", "fcode": "DPR", "description": "Dilaram", "xywh": {"x": 1660, "y": 664, "w": 40, "h": 51}}, {"adminCode1": "41", "lng": "59.22114", "geonameId": 140463, "toponymName": "B\u012brjand", "countryId": "130758", "fcl": "P", "population": 196982, "countryCode": "IR", "name": "Birjand", "fclName": "city, village,...", "adminCodes1": {"ISO3166_2": "29"}, "countryName": "Iran", "fcodeName": "seat of a first-order administrative division", "adminName1": "Khor\u0101s\u0101n-e Jon\u016bb\u012b", "lat": "32.86628", "fcode": "PPLA", "description": "Birjand", "xywh": {"x": 417, "y": 732, "w": 44, "h": 44}}, {"adminCode1": "25", "lng": "78.48023", "geonameId": 1270265, "toponymName": "Har\u016br", "countryId": "1269750", "fcl": "P", "population": 20405, "countryCode": "IN", "name": "Har\u016br", "fclName": "city, village,...", "adminCodes1": {"ISO3166_2": "TN"}, "countryName": "India", "fcodeName": "populated place", "adminName1": "Tamil Nadu", "lat": "12.05267", "fcode": "PPL", "description": "Harur", "xywh": {"x": 899, "y": 741, "w": 32, "h": 55}}, {"adminCode1": "05", "lng": "67.84002", "geonameId": 1404501, "toponymName": "Khushk", "countryId": "1168579", "fcl": "L", "population": 0, "countryCode": "PK", "name": "Khushk", "fclName": "parks,area, ...", "adminCodes1": {"ISO3166_2": "SD"}, "countryName": "Pakistan", "fcodeName": "area", "adminName1": "Sindh", "lat": "26.76807", "fcode": "AREA", "description": "Khushk", "xywh": {"x": 931, "y": 740, "w": 54, "h": 47}}, {"adminCode1": "04", "lng": "61.21582", "geonameId": 1160571, "toponymName": "Kh\u0101sh", "countryId": "130758", "fcl": "P", "population": 69603, "countryCode": "IR", "name": "Kh\u0101sh", "fclName": "city, village,...", "adminCodes1": {"ISO3166_2": "13"}, "countryName": "Iran", "fcodeName": "seat of a second-order administrative division", "adminName1": "Sistan and Baluchestan", "lat": "28.22107", "fcode": "PPLA2", "description": "Khash", "xywh": {"x": 1563, "y": 818, "w": 46, "h": 52}}, {"adminCode1": "42", "lng": "59.7705", "geonameId": 117520, "toponymName": "Sangbar", "countryId": "130758", "fcl": "P", "population": 0, "countryCode": "IR", "name": "Sangbar", "fclName": "city, village,...", "adminCodes1": {"ISO3166_2": "30"}, "countryName": "Iran", "fcodeName": "populated place", "adminName1": "Razavi Khorasan", "lat": "36.2999", "fcode": "PPL", "description": "Sangbar", "xywh": {"x": 2213, "y": 832, "w": 53, "h": 23}}, {"adminCode1": "11", "lng": "19.43333", "geonameId": 3369711, "toponymName": "Boland", "countryId": "953987", "fcl": "L", "population": 0, "countryCode": "ZA", "name": "Boland", "fclName": "parks,area, ...", "adminCodes1": {"ISO3166_2": "WC"}, "countryName": "South Africa", "fcodeName": "area", "adminName1": "Western Cape", "lat": "-33.65", "fcode": "AREA", "description": "Boland", "xywh": {"x": 1979, "y": 886, "w": 50, "h": 29}}, {"adminCode1": "16", "lng": "45.6472", "geonameId": 3198, "toponymName": "\u0100nj\u012bneh-ye Re\u1e95\u0101", "countryId": "130758", "fcl": "P", "population": 0, "countryCode": "IR", "name": "\u0100nj\u012bneh-ye Re\u1e95\u0101", "fclName": "city, village,...", "adminCodes1": {"ISO3166_2": "16"}, "countryName": "Iran", "fcodeName": "populated place", "adminName1": "Kordest\u0101n", "lat": "35.9721", "fcode": "PPL", "description": "Anjineh", "xywh": {"x": 600, "y": 903, "w": 47, "h": 24}}, {"adminCode1": "21", "lng": "82.3789", "geonameId": 10774727, "toponymName": "Murja", "countryId": "1269750", "fcl": "P", "population": 0, "countryCode": "IN", "name": "Murja", "fclName": "city, village,...", "adminCodes1": {"ISO3166_2": "OR"}, "countryName": "India", "fcodeName": "populated place", "adminName1": "Odisha", "lat": "18.81667", "fcode": "PPL", "description": "Murja", "xywh": {"x": 1866, "y": 913, "w": 35, "h": 43}}, {"adminCode1": "12", "lng": "-76.44139", "geonameId": 3558937, "toponymName": "Fer\u00eda", "countryId": "3562981", "fcl": "L", "population": 0, "countryCode": "CU", "name": "Fer\u00eda", "fclName": "parks,area, ...", "adminCodes1": {"ISO3166_2": "11"}, "countryName": "Cuba", "fcodeName": "locality", "adminName1": "Holgu\u00edn", "lat": "20.68417", "fcode": "LCTY", "description": "feria", "xywh": {"x": 97, "y": 939, "w": 45, "h": 50}}, {"adminCode1": "05", "lng": "69.15728", "geonameId": 11372904, "toponymName": "Goth Alahad", "countryId": "1168579", "fcl": "P", "population": 0, "countryCode": "PK", "name": "Goth Alahad", "fclName": "city, village,...", "adminCodes1": {"ISO3166_2": "SD"}, "countryName": "Pakistan", "fcodeName": "populated place", "adminName1": "Sindh", "lat": "27.65618", "fcode": "PPL", "description": "Alahad", "xywh": {"x": 564, "y": 992, "w": 48, "h": 26}}, {"adminCode1": "11", "lng": "-102.88421", "geonameId": 6145108, "toponymName": "Shand", "countryId": "6251999", "fcl": "L", "population": 0, "countryCode": "CA", "name": "Shand", "fclName": "parks,area, ...", "adminCodes1": {"ISO3166_2": "SK"}, "countryName": "Canada", "fcodeName": "area", "adminName1": "Saskatchewan", "lat": "49.10007", "fcode": "AREA", "description": "Shand", "xywh": {"x": 1591, "y": 966, "w": 41, "h": 43}}, {"adminCode1": "61", "lng": "41.78389", "geonameId": 499092, "toponymName": "Samarin", "countryId": "2017370", "fcl": "P", "population": 0, "countryCode": "RU", "name": "Samarin", "fclName": "city, village,...", "adminCodes1": {"ISO3166_2": "ROS"}, "countryName": "Russia", "fcodeName": "abandoned populated place", "adminName1": "Rostov", "lat": "48.185", "fcode": "PPLQ", "description": "\u015eamarin", "xywh": {"x": 717, "y": 1052, "w": 50, "h": 44}}, {"adminCode1": "ESYE43", "lng": "24.02921", "geonameId": 260114, "toponymName": "Chani\u00e1", "countryId": "390903", "fcl": "P", "population": 53910, "countryCode": "GR", "name": "Chania", "fclName": "city, village,...", "adminCodes1": {"ISO3166_2": "M"}, "countryName": "Greece", "fcodeName": "seat of a second-order administrative division", "adminName1": "Crete", "lat": "35.51124", "fcode": "PPLA2", "description": "Chania", "xywh": {"x": 776, "y": 1047, "w": 78, "h": 45}}, {"adminCode1": "07", "lng": "124.01542", "geonameId": 11868971, "toponymName": "Baring", "countryId": "1694008", "fcl": "A", "population": 0, "countryCode": "PH", "name": "Baring", "fclName": "country, state, region,...", "adminCodes1": {"ISO3166_2": "07"}, "countryName": "Philippines", "fcodeName": "fourth-order administrative division", "adminName1": "Central Visayas", "lat": "10.59537", "fcode": "ADM4", "description": "Baring", "xywh": {"x": 877, "y": 1084, "w": 46, "h": 18}}, {"adminCode1": "03", "lng": "16.09215", "geonameId": 8977077, "toponymName": "Parte", "countryId": "3175395", "fcl": "P", "population": 19, "countryCode": "IT", "name": "Parte", "fclName": "city, village,...", "adminCodes1": {"ISO3166_2": "78"}, "countryName": "Italy", "fcodeName": "populated place", "adminName1": "Calabria", "lat": "39.15764", "fcode": "PPL", "description": "Parte", "xywh": {"x": 1065, "y": 1092, "w": 25, "h": 35}}, {"adminCode1": "06", "lng": "63.06638", "geonameId": 1460677, "toponymName": "K\u014dh-e Pa\u1e0fay", "countryId": "1149361", "fcl": "T", "population": 0, "countryCode": "AF", "name": "K\u014dh-e Pa\u1e0fay", "fclName": "mountain,hill,rock,... ", "adminCodes1": {"ISO3166_2": "FRA"}, "countryName": "Afghanistan", "fcodeName": "mountain", "adminName1": "Farah", "lat": "32.73414", "fcode": "MT", "description": "Paday", "xywh": {"x": 1310, "y": 1082, "w": 55, "h": 20}}, {"adminCode1": "00", "lng": "42.64392", "geonameId": 108287, "toponymName": "Ashr\u0101f", "countryId": "102358", "fcl": "L", "population": 0, "countryCode": "SA", "name": "Ashr\u0101f", "fclName": "parks,area, ...", "countryName": "Saudi Arabia", "fcodeName": "tribal area", "adminName1": "", "lat": "17.03648", "fcode": "TRB", "description": "Ashraf", "xywh": {"x": 1970, "y": 1178, "w": 45, "h": 22}}, {"adminCode1": "10", "lng": "64", "geonameId": 1140043, "toponymName": "Helmand", "countryId": "1149361", "fcl": "A", "population": 925666, "countryCode": "AF", "name": "Helmand", "fclName": "country, state, region,...", "adminCodes1": {"ISO3166_2": "HEL"}, "countryName": "Afghanistan", "fcodeName": "first-order administrative division", "adminName1": "Helmand", "lat": "31", "fcode": "ADM1", "description": "Helmand", "xywh": {"x": 1882, "y": 1183, "w": 53, "h": 81}}, {"adminCode1": "07", "lng": "37.88333", "geonameId": 878518, "toponymName": "Abdulla", "countryId": "149590", "fcl": "P", "population": 0, "countryCode": "TZ", "name": "Abdulla", "fclName": "city, village,...", "adminCodes1": {"ISO3166_2": "12"}, "countryName": "Tanzania", "fcodeName": "populated place", "adminName1": "Lindi", "lat": "-10.46667", "fcode": "PPL", "description": "Abdulla", "xywh": {"x": 2073, "y": 1210, "w": 48, "h": 20}}, {"adminCode1": "43", "lng": "38.26488", "geonameId": 551535, "toponymName": "Kazaki", "countryId": "2017370", "fcl": "P", "population": 3227, "countryCode": "RU", "name": "Kazaki", "fclName": "city, village,...", "adminCodes1": {"ISO3166_2": "LIP"}, "countryName": "Russia", "fcodeName": "populated place", "adminName1": "Lipetsk Oblast", "lat": "52.62484", "fcode": "PPL", "description": "Kazaki", "xywh": {"x": 2132, "y": 1207, "w": 49, "h": 20}}, {"adminCode1": "12", "lng": "16.12083", "geonameId": 2592152, "toponymName": "Zanda", "countryId": "3351879", "fcl": "T", "population": 0, "countryCode": "AO", "name": "Zanda", "fclName": "mountain,hill,rock,... ", "adminCodes1": {"ISO3166_2": "MAL"}, "countryName": "Angola", "fcodeName": "hills", "adminName1": "Malanje", "lat": "-9.52056", "fcode": "HLLS", "description": "Z\u0101nda", "xywh": {"x": 2043, "y": 1240, "w": 42, "h": 27}}, {"adminCode1": "00", "lng": "62", "geonameId": 1124306, "toponymName": "S\u012bst\u0101n", "countryId": "1149361", "fcl": "L", "population": 0, "countryCode": "AF", "name": "S\u012bst\u0101n", "fclName": "parks,area, ...", "countryName": "Afghanistan", "fcodeName": "region", "adminName1": "", "lat": "30.5", "fcode": "RGN", "description": "Sistan", "xywh": {"x": 1176, "y": 1243, "w": 44, "h": 20}}, {"adminCode1": "44", "lng": "19.53013", "geonameId": 3185405, "toponymName": "Hamil", "countryId": "783754", "fcl": "P", "population": 0, "countryCode": "AL", "name": "Hamil", "fclName": "city, village,...", "adminCodes1": {"ISO3166_2": "04"}, "countryName": "Albania", "fcodeName": "populated place", "adminName1": "Fier", "lat": "40.75554", "fcode": "PPL", "description": "HAMIL", "xywh": {"x": 562, "y": 1298, "w": 31, "h": 12}}, {"adminCode1": "41", "lng": "119.2597", "geonameId": 7589184, "toponymName": "Buttu Taking", "countryId": "1643084", "fcl": "T", "population": 0, "countryCode": "ID", "name": "Buttu Taking", "fclName": "mountain,hill,rock,... ", "adminCodes1": {"ISO3166_2": "SR"}, "countryName": "Indonesia", "fcodeName": "mountain", "adminName1": "West Sulawesi", "lat": "-3.2722", "fcode": "MT", "description": "taking", "xywh": {"x": 91, "y": 1359, "w": 53, "h": 51}}, {"adminCode1": "06", "lng": "60.91288", "geonameId": 7022159, "toponymName": "Aspar\u0101n", "countryId": "1149361", "fcl": "L", "population": 0, "countryCode": "AF", "name": "Aspar\u0101n", "fclName": "parks,area, ...", "adminCodes1": {"ISO3166_2": "FRA"}, "countryName": "Afghanistan", "fcodeName": "area", "adminName1": "Farah", "lat": "31.94983", "fcode": "AREA", "description": "Asparan", "xywh": {"x": 783, "y": 724, "w": 53, "h": 18}}, {"adminCode1": "05", "lng": "67.84002", "geonameId": 1404501, "toponymName": "Khushk", "countryId": "1168579", "fcl": "L", "population": 0, "countryCode": "PK", "name": "Khushk", "fclName": "parks,area, ...", "adminCodes1": {"ISO3166_2": "SD"}, "countryName": "Pakistan", "fcodeName": "area", "adminName1": "Sindh", "lat": "26.76807", "fcode": "AREA", "description": "Khushk", "xywh": {"x": 1036, "y": 724, "w": 49, "h": 13}}, {"adminCode1": "03", "lng": "71.96229", "geonameId": 1173655, "toponymName": "Khwaja Kalle", "countryId": "1168579", "fcl": "P", "population": 0, "countryCode": "PK", "name": "Khw\u0101ja Rashka", "fclName": "city, village,...", "adminCodes1": {"ISO3166_2": "KP"}, "countryName": "Pakistan", "fcodeName": "populated place", "adminName1": "Khyber Pakhtunkhwa", "lat": "34.1497", "fcode": "PPL", "description": "Khwaja", "xywh": {"x": 681, "y": 758, "w": 46, "h": 21}}, {"adminCode1": "05", "lng": "68.35547", "geonameId": 7363039, "toponymName": "Shoraki", "countryId": "1168579", "fcl": "L", "population": 0, "countryCode": "PK", "name": "Shoraki", "fclName": "parks,area, ...", "adminCodes1": {"ISO3166_2": "SD"}, "countryName": "Pakistan", "fcodeName": "area", "adminName1": "Sindh", "lat": "24.79583", "fcode": "AREA", "description": "Shoraki", "xywh": {"x": 2119, "y": 752, "w": 55, "h": 20}}, {"adminCode1": "05", "lng": "68.37366", "geonameId": 1176734, "toponymName": "Hyderabad", "countryId": "1168579", "fcl": "P", "population": 1386330, "countryCode": "PK", "name": "Hyder\u0101b\u0101d", "fclName": "city, village,...", "adminCodes1": {"ISO3166_2": "SD"}, "countryName": "Pakistan", "fcodeName": "seat of a second-order administrative division", "adminName1": "Sindh", "lat": "25.39242", "fcode": "PPLA2", "description": "Haidar\u0101b\u0101d", "xywh": {"x": 2193, "y": 754, "w": 81, "h": 21}}, {"adminCode1": "00", "lng": "57.4263", "geonameId": 6988294, "toponymName": "L\u0101r\u012b\u0101n", "countryId": "130758", "fcl": "P", "population": 0, "countryCode": "IR", "name": "L\u0101r\u012b\u0101n", "fclName": "city, village,...", "countryName": "Iran", "fcodeName": "populated place", "adminName1": "", "lat": "27.5404", "fcode": "PPL", "description": "Larian", "xywh": {"x": 2385, "y": 756, "w": 44, "h": 21}}, {"adminCode1": "02", "lng": "63.62169", "geonameId": 1461871, "toponymName": "\u0162abaqs\u0101r", "countryId": "1149361", "fcl": "T", "population": 0, "countryCode": "AF", "name": "\u0162abaqs\u0101r", "fclName": "mountain,hill,rock,... ", "adminCodes1": {"ISO3166_2": "BDG"}, "countryName": "Afghanistan", "fcodeName": "mountain", "adminName1": "Badghis", "lat": "34.92526", "fcode": "MT", "description": "Tabaksar", "xywh": {"x": 1660, "y": 766, "w": 60, "h": 17}}, {"adminCode1": "22", "lng": "50.6457", "geonameId": 6656985, "toponymName": "Tappeh", "countryId": "130758", "fcl": "L", "population": 0, "countryCode": "IR", "name": "Tappeh", "fclName": "parks,area, ...", "adminCodes1": {"ISO3166_2": "06"}, "countryName": "Iran", "fcodeName": "locality", "adminName1": "Bushehr", "lat": "29.4633", "fcode": "LCTY", "description": "Tappeh", "xywh": {"x": 1729, "y": 766, "w": 46, "h": 17}}, {"adminCode1": "42", "lng": "70.00919", "geonameId": 1456048, "toponymName": "Kun\u1e0f\u016b", "countryId": "1149361", "fcl": "T", "population": 0, "countryCode": "AF", "name": "Kun\u1e0f\u016b", "fclName": "mountain,hill,rock,... ", "adminCodes1": {"ISO3166_2": "PAN"}, "countryName": "Afghanistan", "fcodeName": "mountain", "adminName1": "Panjshir", "lat": "35.66213", "fcode": "MT", "description": "Kundu", "xywh": {"x": 1101, "y": 772, "w": 46, "h": 19}}, {"adminCode1": "05", "lng": "69.39757", "geonameId": 1362231, "toponymName": "Khani", "countryId": "1168579", "fcl": "L", "population": 0, "countryCode": "PK", "name": "Khani", "fclName": "parks,area, ...", "adminCodes1": {"ISO3166_2": "SD"}, "countryName": "Pakistan", "fcodeName": "area", "adminName1": "Sindh", "lat": "25.31366", "fcode": "AREA", "description": "Khani", "xywh": {"x": 2107, "y": 772, "w": 59, "h": 18}}, {"adminCode1": "41", "lng": "60.00822", "geonameId": 1159502, "toponymName": "Sh\u016bsef", "countryId": "130758", "fcl": "P", "population": 0, "countryCode": "IR", "name": "Sh\u016bsef", "fclName": "city, village,...", "adminCodes1": {"ISO3166_2": "29"}, "countryName": "Iran", "fcodeName": "populated place", "adminName1": "Khor\u0101s\u0101n-e Jon\u016bb\u012b", "lat": "31.80359", "fcode": "PPL", "description": "Shusp", "xywh": {"x": 489, "y": 791, "w": 45, "h": 17}}, {"adminCode1": "09", "lng": "27.77769", "geonameId": 374781, "toponymName": "Girish", "countryId": "7909807", "fcl": "P", "population": 0, "countryCode": "SS", "name": "Girish", "fclName": "city, village,...", "adminCodes1": {"ISO3166_2": "BW"}, "countryName": "South Sudan", "fcodeName": "populated place", "adminName1": "Western Bahr al Ghazal", "lat": "7.40269", "fcode": "PPL", "description": "Girish", "xywh": {"x": 2038, "y": 788, "w": 52, "h": 18}}, {"adminCode1": "WAL", "lng": "5.53652", "geonameId": 2792985, "toponymName": "L\u00e9glise", "countryId": "2802361", "fcl": "P", "population": 3865, "countryCode": "BE", "name": "L\u00e9glise", "fclName": "city, village,...", "adminCodes1": {"ISO3166_2": "WAL"}, "countryName": "Belgium", "fcodeName": "populated place", "adminName1": "Wallonia", "lat": "49.79985", "fcode": "PPL", "description": "Belgi", "xywh": {"x": 1180, "y": 810, "w": 38, "h": 21}}, {"adminCode1": "75", "lng": "22.20143", "geonameId": 762024, "toponymName": "P\u0142onki", "countryId": "798544", "fcl": "P", "population": 0, "countryCode": "PL", "name": "P\u0142onki", "fclName": "city, village,...", "adminCodes1": {"ISO3166_2": "LU"}, "countryName": "Poland", "fcodeName": "populated place", "adminName1": "Lublin", "lat": "51.37277", "fcode": "PPL", "description": "Plonki", "xywh": {"x": 803, "y": 829, "w": 45, "h": 18}}, {"adminCode1": "11", "lng": "44.26573", "geonameId": 97467, "toponymName": "Ras\u016bl Bisk\u016bl", "countryId": "99237", "fcl": "L", "population": 0, "countryCode": "IQ", "name": "Ras\u016bl Bisk\u016bl", "fclName": "parks,area, ...", "adminCodes1": {"ISO3166_2": "AR"}, "countryName": "Iraq", "fcodeName": "locality", "adminName1": "Arb\u012bl", "lat": "36.05361", "fcode": "LCTY", "description": "Rasul", "xywh": {"x": 2026, "y": 823, "w": 40, "h": 20}}, {"adminCode1": "04", "lng": "48.83333", "geonameId": 79214, "toponymName": "Al Juwayn", "countryId": "69543", "fcl": "L", "population": 0, "countryCode": "YE", "name": "Al Juwayn", "fclName": "parks,area, ...", "adminCodes1": {"ISO3166_2": "HD"}, "countryName": "Yemen", "fcodeName": "tribal area", "adminName1": "\u1e28a\u1e11ramawt", "lat": "16.41667", "fcode": "TRB", "description": "Juwain", "xywh": {"x": 1052, "y": 830, "w": 62, "h": 23}}, {"adminCode1": "63", "lng": "119.72667", "geonameId": 2022787, "toponymName": "Khanay", "countryId": "2017370", "fcl": "P", "population": 0, "countryCode": "RU", "name": "Khanay", "fclName": "city, village,...", "adminCodes1": {"ISO3166_2": "SA"}, "countryName": "Russia", "fcodeName": "populated place", "adminName1": "Sakha", "lat": "64.3475", "fcode": "PPL", "description": "Kh\u0101nay", "xywh": {"x": 2174, "y": 850, "w": 94, "h": 27}}, {"adminCode1": "11", "lng": "99.7062", "geonameId": 6920156, "toponymName": "Buryat-Gol", "countryId": "2017370", "fcl": "H", "population": 0, "countryCode": "RU", "name": "Buryat-Gol", "fclName": "stream, lake, ...", "adminCodes1": {"ISO3166_2": "BU"}, "countryName": "Russia", "fcodeName": "stream", "adminName1": "Buryatiya Republic", "lat": "52.5689", "fcode": "STM", "description": "Burjat", "xywh": {"x": 554, "y": 873, "w": 42, "h": 21}}, {"adminCode1": "25", "lng": "44.15102", "geonameId": 7354941, "toponymName": "Ghur\u0101b", "countryId": "69543", "fcl": "P", "population": 0, "countryCode": "YE", "name": "Ghur\u0101b", "fclName": "city, village,...", "adminCodes1": {"ISO3166_2": "TA"}, "countryName": "Yemen", "fcodeName": "populated place", "adminName1": "Ta\u2018izz", "lat": "13.47602", "fcode": "PPL", "description": "Ghurab", "xywh": {"x": 600, "y": 873, "w": 52, "h": 21}}, {"adminCode1": "05", "lng": "68.6223", "geonameId": 1175053, "toponymName": "Kandah", "countryId": "1168579", "fcl": "L", "population": 0, "countryCode": "PK", "name": "Kandah", "fclName": "parks,area, ...", "adminCodes1": {"ISO3166_2": "SD"}, "countryName": "Pakistan", "fcodeName": "area", "adminName1": "Sindh", "lat": "24.78475", "fcode": "AREA", "description": "KANDAH", "xywh": {"x": 2526, "y": 861, "w": 96, "h": 18}}, {"adminCode1": "06", "lng": "61.249", "geonameId": 7052917, "toponymName": "An\u0101r Darah", "countryId": "1149361", "fcl": "A", "population": 0, "countryCode": "AF", "name": "An\u0101r Darah", "fclName": "country, state, region,...", "adminCodes1": {"ISO3166_2": "FRA"}, "countryName": "Afghanistan", "fcodeName": "second-order administrative division", "adminName1": "Farah", "lat": "33.01119", "fcode": "ADM2", "description": "Darah", "xywh": {"x": 1923, "y": 868, "w": 45, "h": 18}}, {"adminCode1": "65", "lng": "25.23213", "geonameId": 11298257, "toponymName": "Gumbas", "countryId": "597427", "fcl": "P", "population": 0, "countryCode": "LT", "name": "Gumbas", "fclName": "city, village,...", "adminCodes1": {"ISO3166_2": "VL"}, "countryName": "Lithuania", "fcodeName": "populated place", "adminName1": "Vilnius", "lat": "54.37188", "fcode": "PPL", "description": "Gumbas", "xywh": {"x": 1752, "y": 879, "w": 57, "h": 15}}, {"adminCode1": "02", "lng": "64.73325", "geonameId": 1134719, "toponymName": "Lashkar\u012b", "countryId": "1149361", "fcl": "P", "population": 0, "countryCode": "AF", "name": "Lashkar\u012b", "fclName": "city, village,...", "adminCodes1": {"ISO3166_2": "BDG"}, "countryName": "Afghanistan", "fcodeName": "populated place", "adminName1": "Badghis", "lat": "35.05419", "fcode": "PPL", "description": "Lashkari", "xywh": {"x": 2038, "y": 874, "w": 60, "h": 16}}, {"adminCode1": "01", "lng": "97.53333", "geonameId": 8571754, "toponymName": "Kecamatan Madat", "countryId": "1643084", "fcl": "A", "population": 0, "countryCode": "ID", "name": "Kecamatan Madat", "fclName": "country, state, region,...", "adminCodes1": {"ISO3166_2": "AC"}, "countryName": "Indonesia", "fcodeName": "third-order administrative division", "adminName1": "Aceh", "lat": "5.18333", "fcode": "ADM3", "description": "Madat", "xywh": {"x": 2390, "y": 880, "w": 43, "h": 20}}, {"adminCode1": "20", "lng": "129.15741", "geonameId": 11090956, "toponymName": "Gumbawi", "countryId": "1835841", "fcl": "P", "population": 0, "countryCode": "KR", "name": "Gumbawi", "fclName": "city, village,...", "adminCodes1": {"ISO3166_2": "48"}, "countryName": "South Korea", "fcodeName": "populated place", "adminName1": "Gyeongsangnam-do", "lat": "35.39144", "fcode": "PPL", "description": "Gumbawi", "xywh": {"x": 2199, "y": 883, "w": 72, "h": 20}}, {"adminCode1": "38", "lng": "70.37376", "geonameId": 1123575, "toponymName": "S\u016br\u012bch", "countryId": "1149361", "fcl": "P", "population": 0, "countryCode": "AF", "name": "S\u016br\u012bch", "fclName": "city, village,...", "adminCodes1": {"ISO3166_2": "NUR"}, "countryName": "Afghanistan", "fcodeName": "populated place", "adminName1": "Nuristan", "lat": "35.22202", "fcode": "PPL", "description": "Surich", "xywh": {"x": 2275, "y": 884, "w": 39, "h": 21}}, {"adminCode1": "04", "lng": "-6.83255", "geonameId": 2538475, "toponymName": "Rabat", "countryId": "2542007", "fcl": "P", "population": 1655753, "countryCode": "MA", "name": "Rabat", "fclName": "city, village,...", "adminCodes1": {"ISO3166_2": "04"}, "countryName": "Morocco", "fcodeName": "capital of a political entity", "adminName1": "Rabat-Sal\u00e9-K\u00e9nitra", "lat": "34.01325", "fcode": "PPLC", "description": "Rabat", "xywh": {"x": 2590, "y": 881, "w": 37, "h": 13}}, {"adminCode1": "11", "lng": "64.05377", "geonameId": 1143953, "toponymName": "Darah-ye Takht", "countryId": "1149361", "fcl": "L", "population": 0, "countryCode": "AF", "name": "Darah-ye Takht", "fclName": "parks,area, ...", "adminCodes1": {"ISO3166_2": "HER"}, "countryName": "Afghanistan", "fcodeName": "locality", "adminName1": "Herat", "lat": "34.3661", "fcode": "LCTY", "description": "Takht", "xywh": {"x": 1108, "y": 893, "w": 41, "h": 18}}, {"adminCode1": "05", "lng": "68.80386", "geonameId": 1166720, "toponymName": "Rustam", "countryId": "1168579", "fcl": "P", "population": 9048, "countryCode": "PK", "name": "Rustam", "fclName": "city, village,...", "adminCodes1": {"ISO3166_2": "SD"}, "countryName": "Pakistan", "fcodeName": "populated place", "adminName1": "Sindh", "lat": "27.96705", "fcode": "PPL", "description": "Rustam", "xywh": {"x": 1165, "y": 893, "w": 47, "h": 18}}, {"adminCode1": "04", "lng": "21.37923", "geonameId": 10057090, "toponymName": "Kuore", "countryId": "660013", "fcl": "T", "population": 0, "countryCode": "FI", "name": "Kuore", "fclName": "mountain,hill,rock,... ", "adminCodes1": {"ISO3166_2": "17"}, "countryName": "Finland", "fcodeName": "island", "adminName1": "Satakunta", "lat": "61.41225", "fcode": "ISL", "description": "KUORE", "xywh": {"x": 925, "y": 911, "w": 41, "h": 21}}, {"adminCode1": "36", "lng": "80.75461", "geonameId": 1267175, "toponymName": "Khair\u0101b\u0101d", "countryId": "1269750", "fcl": "P", "population": 42125, "countryCode": "IN", "name": "Khair\u0101b\u0101d", "fclName": "city, village,...", "adminCodes1": {"ISO3166_2": "UP"}, "countryName": "India", "fcodeName": "populated place", "adminName1": "Uttar Pradesh", "lat": "27.52698", "fcode": "PPL", "description": "Khairabad", "xywh": {"x": 1021, "y": 913, "w": 70, "h": 16}}, {"adminCode1": "04", "lng": "61.21582", "geonameId": 1160571, "toponymName": "Kh\u0101sh", "countryId": "130758", "fcl": "P", "population": 69603, "countryCode": "IR", "name": "Kh\u0101sh", "fclName": "city, village,...", "adminCodes1": {"ISO3166_2": "13"}, "countryName": "Iran", "fcodeName": "seat of a second-order administrative division", "adminName1": "Sistan and Baluchestan", "lat": "28.22107", "fcode": "PPLA2", "description": "Khash", "xywh": {"x": 1454, "y": 907, "w": 41, "h": 15}}, {"adminCode1": "14", "lng": "146.35784", "geonameId": 2096376, "toponymName": "Hamuni", "countryId": "2088628", "fcl": "P", "population": 0, "countryCode": "PG", "name": "Hamuni", "fclName": "city, village,...", "adminCodes1": {"ISO3166_2": "MPL"}, "countryName": "Papua New Guinea", "fcodeName": "populated place", "adminName1": "Morobe", "lat": "-7.49262", "fcode": "PPL", "description": "Hamuni", "xywh": {"x": 896, "y": 928, "w": 79, "h": 22}}, {"adminCode1": "28", "lng": "52.98333", "geonameId": 403484, "toponymName": "Q\u016bd\u0101r", "countryId": "130758", "fcl": "P", "population": 0, "countryCode": "IR", "name": "Q\u016bd\u0101r", "fclName": "city, village,...", "adminCodes1": {"ISO3166_2": "04"}, "countryName": "Iran", "fcodeName": "populated place", "adminName1": "Isfahan", "lat": "32.65556", "fcode": "PPL", "description": "QUDAR", "xywh": {"x": 535, "y": 943, "w": 34, "h": 20}}, {"adminCode1": "28", "lng": "66.98737", "geonameId": 7053344, "toponymName": "Arghand\u0101b", "countryId": "1149361", "fcl": "A", "population": 0, "countryCode": "AF", "name": "Arghand\u0101b", "fclName": "country, state, region,...", "adminCodes1": {"ISO3166_2": "ZAB"}, "countryName": "Afghanistan", "fcodeName": "second-order administrative division", "adminName1": "Zabul", "lat": "32.51196", "fcode": "ADM2", "description": "Arghandab", "xywh": {"x": 2207, "y": 931, "w": 84, "h": 31}}, {"adminCode1": "71", "lng": "58.48273", "geonameId": 538737, "toponymName": "Kurki", "countryId": "2017370", "fcl": "P", "population": 0, "countryCode": "RU", "name": "Kurki", "fclName": "city, village,...", "adminCodes1": {"ISO3166_2": "SVE"}, "countryName": "Russia", "fcodeName": "populated place", "adminName1": "Sverdlovsk", "lat": "56.49614", "fcode": "PPL", "description": "Kurki", "xywh": {"x": 1678, "y": 945, "w": 41, "h": 17}}, {"adminCode1": "18", "lng": "105.36806", "geonameId": 1551843, "toponymName": "Chahe", "countryId": "1814991", "fcl": "P", "population": 0, "countryCode": "CN", "name": "Chahe", "fclName": "city, village,...", "adminCodes1": {"ISO3166_2": "GZ"}, "countryName": "China", "fcodeName": "populated place", "adminName1": "Guizhou", "lat": "27.1825", "fcode": "PPL", "description": "CHAHE", "xywh": {"x": 2366, "y": 931, "w": 76, "h": 31}}, {"adminCode1": "37", "lng": "69.8946", "geonameId": 1424990, "toponymName": "Sabar\u012b", "countryId": "1149361", "fcl": "L", "population": 0, "countryCode": "AF", "name": "Sabar\u012b", "fclName": "parks,area, ...", "adminCodes1": {"ISO3166_2": "KHO"}, "countryName": "Afghanistan", "fcodeName": "locality", "adminName1": "Khowst", "lat": "33.5503", "fcode": "LCTY", "description": "Sabari", "xywh": {"x": 902, "y": 948, "w": 50, "h": 18}}, {"adminCode1": "15", "lng": "50.07501", "geonameId": 141685, "toponymName": "Band\u0101n", "countryId": "130758", "fcl": "L", "population": 0, "countryCode": "IR", "name": "Band\u0101n", "fclName": "parks,area, ...", "adminCodes1": {"ISO3166_2": "10"}, "countryName": "Iran", "fcodeName": "area", "adminName1": "Khuzestan", "lat": "31.8841", "fcode": "AREA", "description": "Bandan", "xywh": {"x": 734, "y": 961, "w": 54, "h": 23}}, {"adminCode1": "14", "lng": "147.20078", "geonameId": 2096968, "toponymName": "Gilang", "countryId": "2088628", "fcl": "P", "population": 0, "countryCode": "PG", "name": "Gilang", "fclName": "city, village,...", "adminCodes1": {"ISO3166_2": "MPL"}, "countryName": "Papua New Guinea", "fcodeName": "populated place", "adminName1": "Morobe", "lat": "-6.19781", "fcode": "PPL", "description": "Gilang", "xywh": {"x": 1330, "y": 956, "w": 45, "h": 19}}, {"adminCode1": "03", "lng": "71.96229", "geonameId": 1173655, "toponymName": "Khwaja Kalle", "countryId": "1168579", "fcl": "P", "population": 0, "countryCode": "PK", "name": "Khw\u0101ja Rashka", "fclName": "city, village,...", "adminCodes1": {"ISO3166_2": "KP"}, "countryName": "Pakistan", "fcodeName": "populated place", "adminName1": "Khyber Pakhtunkhwa", "lat": "34.1497", "fcode": "PPL", "description": "KHWAJA", "xywh": {"x": 1504, "y": 960, "w": 43, "h": 18}}, {"adminCode1": "71", "lng": "58.48273", "geonameId": 538737, "toponymName": "Kurki", "countryId": "2017370", "fcl": "P", "population": 0, "countryCode": "RU", "name": "Kurki", "fclName": "city, village,...", "adminCodes1": {"ISO3166_2": "SVE"}, "countryName": "Russia", "fcodeName": "populated place", "adminName1": "Sverdlovsk", "lat": "56.49614", "fcode": "PPL", "description": "Kurki", "xywh": {"x": 1752, "y": 959, "w": 41, "h": 18}}, {"adminCode1": "13", "lng": "75.27548", "geonameId": 10891309, "toponymName": "Balal", "countryId": "1269750", "fcl": "P", "population": 0, "countryCode": "IN", "name": "Balal", "fclName": "city, village,...", "adminCodes1": {"ISO3166_2": "KL"}, "countryName": "India", "fcodeName": "populated place", "adminName1": "Kerala", "lat": "12.37929", "fcode": "PPL", "description": "Balal", "xywh": {"x": 2100, "y": 961, "w": 36, "h": 18}}, {"adminCode1": "05", "lng": "69.79099", "geonameId": 1178395, "toponymName": "Ghundi", "countryId": "1168579", "fcl": "L", "population": 0, "countryCode": "PK", "name": "Ghundi", "fclName": "parks,area, ...", "adminCodes1": {"ISO3166_2": "SD"}, "countryName": "Pakistan", "fcodeName": "area", "adminName1": "Sindh", "lat": "28.25826", "fcode": "AREA", "description": "Ghundi", "xywh": {"x": 2140, "y": 961, "w": 53, "h": 18}}, {"adminCode1": "03", "lng": "71.96229", "geonameId": 1173655, "toponymName": "Khwaja Kalle", "countryId": "1168579", "fcl": "P", "population": 0, "countryCode": "PK", "name": "Khw\u0101ja Rashka", "fclName": "city, village,...", "adminCodes1": {"ISO3166_2": "KP"}, "countryName": "Pakistan", "fcodeName": "populated place", "adminName1": "Khyber Pakhtunkhwa", "lat": "34.1497", "fcode": "PPL", "description": "Khwaja", "xywh": {"x": 1190, "y": 981, "w": 50, "h": 18}}, {"adminCode1": "04", "lng": "71.49091", "geonameId": 1409565, "toponymName": "Buch Khusarabad", "countryId": "1168579", "fcl": "P", "population": 0, "countryCode": "PK", "name": "Buch Khusarabad", "fclName": "city, village,...", "adminCodes1": {"ISO3166_2": "PB"}, "countryName": "Pakistan", "fcodeName": "populated place", "adminName1": "Punjab", "lat": "30.28558", "fcode": "PPL", "description": "Khusar\u0101b\u0101d", "xywh": {"x": 1933, "y": 980, "w": 82, "h": 17}}, {"adminCode1": "90", "lng": "56.9348", "geonameId": 8246300, "toponymName": "Kharika", "countryId": "2017370", "fcl": "P", "population": 0, "countryCode": "RU", "name": "Kharika", "fclName": "city, village,...", "adminCodes1": {"ISO3166_2": "PER"}, "countryName": "Russia", "fcodeName": "populated place", "adminName1": "Perm", "lat": "59.6943", "fcode": "PPL", "description": "Kharika", "xywh": {"x": 850, "y": 995, "w": 56, "h": 22}}, {"adminCode1": "00", "lng": "73.13333", "geonameId": 1528314, "toponymName": "Guzar", "countryId": "1527747", "fcl": "P", "population": 0, "countryCode": "KG", "name": "Guzar", "fclName": "city, village,...", "countryName": "Kyrgyzstan", "fcodeName": "populated place", "adminName1": "", "lat": "40.56667", "fcode": "PPL", "description": "Guzar", "xywh": {"x": 1333, "y": 1004, "w": 45, "h": 20}}, {"adminCode1": "04", "lng": "61.21582", "geonameId": 1160571, "toponymName": "Kh\u0101sh", "countryId": "130758", "fcl": "P", "population": 69603, "countryCode": "IR", "name": "Kh\u0101sh", "fclName": "city, village,...", "adminCodes1": {"ISO3166_2": "13"}, "countryName": "Iran", "fcodeName": "seat of a second-order administrative division", "adminName1": "Sistan and Baluchestan", "lat": "28.22107", "fcode": "PPLA2", "description": "Khash", "xywh": {"x": 1395, "y": 1003, "w": 39, "h": 19}}, {"adminCode1": "10", "lng": "76.67582", "geonameId": 9892899, "toponymName": "K\u0101hni", "countryId": "1269750", "fcl": "P", "population": 0, "countryCode": "IN", "name": "K\u0101hni", "fclName": "city, village,...", "adminCodes1": {"ISO3166_2": "HR"}, "countryName": "India", "fcodeName": "populated place", "adminName1": "Haryana", "lat": "29.01494", "fcode": "PPL", "description": "Kahni", "xywh": {"x": 1480, "y": 999, "w": 42, "h": 19}}, {"adminCode1": "16", "lng": "46.5734", "geonameId": 3897, "toponymName": "Khv\u0101sht", "countryId": "130758", "fcl": "P", "population": 0, "countryCode": "IR", "name": "Khv\u0101sht", "fclName": "city, village,...", "adminCodes1": {"ISO3166_2": "16"}, "countryName": "Iran", "fcodeName": "populated place", "adminName1": "Kordest\u0101n", "lat": "35.2237", "fcode": "PPL", "description": "Khwash", "xywh": {"x": 1317, "y": 1025, "w": 51, "h": 26}}, {"adminCode1": "20", "lng": "-79.45276", "geonameId": 6368475, "toponymName": "Quebrada Sangrin", "countryId": "3932488", "fcl": "H", "population": 0, "countryCode": "PE", "name": "Quebrada Sangrin", "fclName": "stream, lake, ...", "adminCodes1": {"ISO3166_2": "PIU"}, "countryName": "Peru", "fcodeName": "stream", "adminName1": "Piura", "lat": "-5.30295", "fcode": "STM", "description": "Sangrin", "xywh": {"x": 716, "y": 1063, "w": 45, "h": 19}}, {"adminCode1": "02", "lng": "66.91151", "geonameId": 7027502, "toponymName": "Surkh", "countryId": "1168579", "fcl": "L", "population": 0, "countryCode": "PK", "name": "Surkh", "fclName": "parks,area, ...", "adminCodes1": {"ISO3166_2": "BA"}, "countryName": "Pakistan", "fcodeName": "locality", "adminName1": "Balochistan", "lat": "28.20545", "fcode": "LCTY", "description": "Surkh", "xywh": {"x": 1978, "y": 1054, "w": 38, "h": 17}}, {"adminCode1": "19", "lng": "62.5", "geonameId": 1131821, "toponymName": "Wil\u0101yat-e N\u012bmr\u014dz", "countryId": "1149361", "fcl": "A", "population": 234086, "countryCode": "AF", "name": "Nimroz", "fclName": "country, state, region,...", "adminCodes1": {"ISO3166_2": "NIM"}, "countryName": "Afghanistan", "fcodeName": "first-order administrative division", "adminName1": "Nimroz", "lat": "31", "fcode": "ADM1", "description": "Chakansur", "xywh": {"x": 1164, "y": 1057, "w": 79, "h": 20}}, {"adminCode1": "29", "lng": "69.09783", "geonameId": 1434260, "toponymName": "Akhtar\u014d K\u00ealay", "countryId": "1149361", "fcl": "P", "population": 0, "countryCode": "AF", "name": "Akhtar\u014d K\u00ealay", "fclName": "city, village,...", "adminCodes1": {"ISO3166_2": "PKA"}, "countryName": "Afghanistan", "fcodeName": "populated place", "adminName1": "Paktika", "lat": "32.85686", "fcode": "PPL", "description": "Akhtaro", "xywh": {"x": 2471, "y": 1061, "w": 52, "h": 16}}, {"adminCode1": "82", "lng": "16.20689", "geonameId": 3074618, "toponymName": "Osta\u0161", "countryId": "3077311", "fcl": "T", "population": 0, "countryCode": "CZ", "name": "Osta\u0161", "fclName": "mountain,hill,rock,... ", "adminCodes1": {"ISO3166_2": "52"}, "countryName": "Czechia", "fcodeName": "mountain", "adminName1": "Kr\u00e1lov\u00e9hradeck\u00fd kraj", "lat": "50.56067", "fcode": "MT", "description": "Ost\u0101s", "xywh": {"x": 2212, "y": 1070, "w": 34, "h": 21}}, {"adminCode1": "11", "lng": "-102.88421", "geonameId": 6145108, "toponymName": "Shand", "countryId": "6251999", "fcl": "L", "population": 0, "countryCode": "CA", "name": "Shand", "fclName": "parks,area, ...", "adminCodes1": {"ISO3166_2": "SK"}, "countryName": "Canada", "fcodeName": "area", "adminName1": "Saskatchewan", "lat": "49.10007", "fcode": "AREA", "description": "Shand", "xywh": {"x": 1479, "y": 1087, "w": 38, "h": 16}}, {"adminCode1": "38", "lng": "38.9749", "geonameId": 867729, "toponymName": "Urochishche Madel\u2019", "countryId": "2017370", "fcl": "L", "population": 0, "countryCode": "RU", "name": "Urochishche Madel\u2019", "fclName": "parks,area, ...", "adminCodes1": {"ISO3166_2": "KDA"}, "countryName": "Russia", "fcodeName": "area", "adminName1": "Krasnodarskiy", "lat": "44.4142", "fcode": "AREA", "description": "Madel", "xywh": {"x": 576, "y": 1097, "w": 40, "h": 15}}, {"adminCode1": "MN", "lng": "-96.31673", "geonameId": 5029570, "toponymName": "Hawley", "countryId": "6252001", "fcl": "P", "population": 2179, "countryCode": "US", "name": "Hawley", "fclName": "city, village,...", "adminCodes1": {"ISO3166_2": "MN"}, "countryName": "United States", "fcodeName": "populated place", "adminName1": "Minnesota", "lat": "46.88079", "fcode": "PPL", "description": "Kholi", "xywh": {"x": 2433, "y": 1093, "w": 37, "h": 21}}, {"adminCode1": "43", "lng": "38.26488", "geonameId": 551535, "toponymName": "Kazaki", "countryId": "2017370", "fcl": "P", "population": 3227, "countryCode": "RU", "name": "Kazaki", "fclName": "city, village,...", "adminCodes1": {"ISO3166_2": "LIP"}, "countryName": "Russia", "fcodeName": "populated place", "adminName1": "Lipetsk Oblast", "lat": "52.62484", "fcode": "PPL", "description": "Kazaki", "xywh": {"x": 2478, "y": 1093, "w": 46, "h": 21}}, {"adminCode1": "05", "lng": "139.81667", "geonameId": 2065081, "toponymName": "Naidia", "countryId": "2077456", "fcl": "P", "population": 0, "countryCode": "AU", "name": "Naidia", "fclName": "city, village,...", "adminCodes1": {"ISO3166_2": "SA"}, "countryName": "Australia", "fcodeName": "populated place", "adminName1": "South Australia", "lat": "-34.51667", "fcode": "PPL", "description": "Naidia", "xywh": {"x": 880, "y": 1119, "w": 40, "h": 21}}, {"adminCode1": "29", "lng": "68.42749", "geonameId": 1140572, "toponymName": "Guld\u0101d", "countryId": "1149361", "fcl": "P", "population": 0, "countryCode": "AF", "name": "Guld\u0101d", "fclName": "city, village,...", "adminCodes1": {"ISO3166_2": "PKA"}, "countryName": "Afghanistan", "fcodeName": "populated place", "adminName1": "Paktika", "lat": "32.7653", "fcode": "PPL", "description": "Guldad", "xywh": {"x": 2013, "y": 1119, "w": 49, "h": 17}}, {"adminCode1": "13", "lng": "69.72493", "geonameId": 1473085, "toponymName": "Daguna", "countryId": "1149361", "fcl": "P", "population": 0, "countryCode": "AF", "name": "Daguna", "fclName": "city, village,...", "adminCodes1": {"ISO3166_2": "KAB"}, "countryName": "Afghanistan", "fcodeName": "populated place", "adminName1": "Kabul", "lat": "34.57729", "fcode": "PPL", "description": "Daguna", "xywh": {"x": 2389, "y": 1141, "w": 49, "h": 18}}, {"adminCode1": "04", "lng": "60.5265", "geonameId": 1159660, "toponymName": "Sef\u012bd\u0101beh", "countryId": "130758", "fcl": "P", "population": 0, "countryCode": "IR", "name": "Sef\u012bd\u0101beh", "fclName": "city, village,...", "adminCodes1": {"ISO3166_2": "13"}, "countryName": "Iran", "fcodeName": "populated place", "adminName1": "Sistan and Baluchestan", "lat": "30.9771", "fcode": "PPL", "description": "Safid\u0101v\u0101", "xywh": {"x": 596, "y": 1160, "w": 60, "h": 17}}, {"adminCode1": "03", "lng": "71.96229", "geonameId": 1173655, "toponymName": "Khwaja Kalle", "countryId": "1168579", "fcl": "P", "population": 0, "countryCode": "PK", "name": "Khw\u0101ja Rashka", "fclName": "city, village,...", "adminCodes1": {"ISO3166_2": "KP"}, "countryName": "Pakistan", "fcodeName": "populated place", "adminName1": "Khyber Pakhtunkhwa", "lat": "34.1497", "fcode": "PPL", "description": "KHWAJA", "xywh": {"x": 877, "y": 1166, "w": 44, "h": 18}}, {"adminCode1": "10", "lng": "13.38333", "geonameId": 2228399, "toponymName": "Margol", "countryId": "2233387", "fcl": "P", "population": 0, "countryCode": "CM", "name": "Margol", "fclName": "city, village,...", "adminCodes1": {"ISO3166_2": "AD"}, "countryName": "Cameroon", "fcodeName": "populated place", "adminName1": "Adamaoua", "lat": "7.43333", "fcode": "PPL", "description": "MARGOL", "xywh": {"x": 1669, "y": 1158, "w": 243, "h": 26}}, {"adminCode1": "08", "lng": "73.04329", "geonameId": 1176615, "toponymName": "Islamabad", "countryId": "1168579", "fcl": "P", "population": 601600, "countryCode": "PK", "name": "Islamabad", "fclName": "city, village,...", "adminCodes1": {"ISO3166_2": "IS"}, "countryName": "Pakistan", "fcodeName": "capital of a political entity", "adminName1": "Islamabad", "lat": "33.72148", "fcode": "PPLC", "description": "Aslam", "xywh": {"x": 2079, "y": 1156, "w": 37, "h": 20}}, {"adminCode1": "04", "lng": "61.3973", "geonameId": 1161522, "toponymName": "Cheleng", "countryId": "130758", "fcl": "P", "population": 0, "countryCode": "IR", "name": "Cheleng", "fclName": "city, village,...", "adminCodes1": {"ISO3166_2": "13"}, "countryName": "Iran", "fcodeName": "populated place", "adminName1": "Sistan and Baluchestan", "lat": "30.8975", "fcode": "PPL", "description": "Chilling", "xywh": {"x": 942, "y": 1184, "w": 54, "h": 18}}, {"adminCode1": "02", "lng": "68.97307", "geonameId": 8221279, "toponymName": "Nohiyai Sarband", "countryId": "1220409", "fcl": "A", "population": 0, "countryCode": "TJ", "name": "Sarband District", "fclName": "country, state, region,...", "adminCodes1": {"ISO3166_2": "KT"}, "countryName": "Tajikistan", "fcodeName": "second-order administrative division", "adminName1": "Khatlon", "lat": "37.95331", "fcode": "ADM2", "description": "Sarband", "xywh": {"x": 1054, "y": 1184, "w": 54, "h": 19}}, {"adminCode1": "09", "lng": "66.30248", "geonameId": 1138360, "toponymName": "K\u0101mr\u0101n", "countryId": "1149361", "fcl": "P", "population": 0, "countryCode": "AF", "name": "K\u0101mr\u0101n", "fclName": "city, village,...", "adminCodes1": {"ISO3166_2": "GHO"}, "countryName": "Afghanistan", "fcodeName": "populated place", "adminName1": "Ghowr", "lat": "34.64283", "fcode": "PPL", "description": "Kamran", "xywh": {"x": 1153, "y": 1185, "w": 56, "h": 18}}, {"adminCode1": "33", "lng": "47.65094", "geonameId": 10348959, "toponymName": "K\u016bh-e Qo\u0163\u016br", "countryId": "130758", "fcl": "T", "population": 0, "countryCode": "IR", "name": "K\u016bh-e Qo\u0163\u016br", "fclName": "mountain,hill,rock,... ", "adminCodes1": {"ISO3166_2": "01"}, "countryName": "Iran", "fcodeName": "mountain", "adminName1": "East Azerbaijan", "lat": "38.20045", "fcode": "MT", "description": "Chakil", "xywh": {"x": 1235, "y": 1185, "w": 45, "h": 19}}, {"adminCode1": "03", "lng": "70.54472", "geonameId": 1166010, "toponymName": "Sarfar\u0101z", "countryId": "1168579", "fcl": "P", "population": 0, "countryCode": "PK", "name": "Sarfar\u0101z", "fclName": "city, village,...", "adminCodes1": {"ISO3166_2": "KP"}, "countryName": "Pakistan", "fcodeName": "populated place", "adminName1": "Khyber Pakhtunkhwa", "lat": "32.18639", "fcode": "PPL", "description": "Sarfaraz", "xywh": {"x": 2568, "y": 1183, "w": 58, "h": 21}}, {"adminCode1": "02", "lng": "66.83083", "geonameId": 7326557, "toponymName": "Kuhak", "countryId": "1168579", "fcl": "L", "population": 0, "countryCode": "PK", "name": "Kuhak", "fclName": "parks,area, ...", "adminCodes1": {"ISO3166_2": "BA"}, "countryName": "Pakistan", "fcodeName": "area", "adminName1": "Balochistan", "lat": "29.56397", "fcode": "AREA", "description": "Kuhak", "xywh": {"x": 1121, "y": 1227, "w": 45, "h": 18}}, {"adminCode1": "32", "lng": "68.43333", "geonameId": 1497267, "toponymName": "Novaya Pushta", "countryId": "2017370", "fcl": "P", "population": 0, "countryCode": "RU", "name": "Novaya Pushta", "fclName": "city, village,...", "adminCodes1": {"ISO3166_2": "KHM"}, "countryName": "Russia", "fcodeName": "populated place", "adminName1": "Khanty-Mansia", "lat": "59.68333", "fcode": "PPL", "description": "Pushta", "xywh": {"x": 1984, "y": 1214, "w": 45, "h": 20}}, {"adminCode1": "25", "lng": "43.90233", "geonameId": 7356400, "toponymName": "T\u016btar", "countryId": "69543", "fcl": "P", "population": 0, "countryCode": "YE", "name": "T\u016btar", "fclName": "city, village,...", "adminCodes1": {"ISO3166_2": "TA"}, "countryName": "Yemen", "fcodeName": "populated place", "adminName1": "Ta\u2018izz", "lat": "13.51115", "fcode": "PPL", "description": "Tutar", "xywh": {"x": 927, "y": 1233, "w": 41, "h": 23}}, {"adminCode1": "40", "lng": "68.66498", "geonameId": 1140732, "toponymName": "Gunbad", "countryId": "1149361", "fcl": "L", "population": 0, "countryCode": "AF", "name": "Gunbad", "fclName": "parks,area, ...", "adminCodes1": {"ISO3166_2": "PAR"}, "countryName": "Afghanistan", "fcodeName": "locality", "adminName1": "Parwan", "lat": "34.82252", "fcode": "LCTY", "description": "Gumbad", "xywh": {"x": 723, "y": 1258, "w": 56, "h": 16}}, {"adminCode1": "23", "lng": "-51.17944", "geonameId": 3466537, "toponymName": "Caxias do Sul", "countryId": "3469034", "fcl": "P", "population": 381270, "countryCode": "BR", "name": "Caxias do Sul", "fclName": "city, village,...", "adminCodes1": {"ISO3166_2": "RS"}, "countryName": "Brazil", "fcodeName": "populated place", "adminName1": "Rio Grande do Sul", "lat": "-29.16806", "fcode": "PPL", "description": "Kasijas", "xywh": {"x": 802, "y": 1258, "w": 50, "h": 16}}, {"adminCode1": "24", "lng": "73.14037", "geonameId": 10803346, "toponymName": "L\u0101lki", "countryId": "1269750", "fcl": "P", "population": 0, "countryCode": "IN", "name": "L\u0101lki", "fclName": "city, village,...", "adminCodes1": {"ISO3166_2": "RJ"}, "countryName": "India", "fcodeName": "populated place", "adminName1": "Rajasthan", "lat": "26.03288", "fcode": "PPL", "description": "Lalki", "xywh": {"x": 1934, "y": 1252, "w": 37, "h": 18}}, {"adminCode1": "04", "lng": "61.3378", "geonameId": 1159332, "toponymName": "Varm\u0101l", "countryId": "130758", "fcl": "P", "population": 0, "countryCode": "IR", "name": "Varm\u0101l", "fclName": "city, village,...", "adminCodes1": {"ISO3166_2": "13"}, "countryName": "Iran", "fcodeName": "populated place", "adminName1": "Sistan and Baluchestan", "lat": "30.7511", "fcode": "PPL", "description": "Varmal", "xywh": {"x": 947, "y": 1272, "w": 55, "h": 20}}, {"adminCode1": "05", "lng": "71.44598", "geonameId": 1526273, "toponymName": "Nur-Sultan", "countryId": "1522867", "fcl": "P", "population": 345604, "countryCode": "KZ", "name": "Nur-Sultan", "fclName": "city, village,...", "adminCodes1": {"ISO3166_2": "AST"}, "countryName": "Kazakhstan", "fcodeName": "capital of a political entity", "adminName1": "Nur-Sultan", "lat": "51.1801", "fcode": "PPLC", "description": "Sultan", "xywh": {"x": 1194, "y": 1280, "w": 42, "h": 21}}, {"adminCode1": "C7", "lng": "20.86417", "geonameId": 832854, "toponymName": "\u0160afar", "countryId": "718075", "fcl": "L", "population": 0, "countryCode": "MK", "name": "\u0160afar", "fclName": "parks,area, ...", "adminCodes1": {"ISO3166_2": "06"}, "countryName": "North Macedonia", "fcodeName": "locality", "adminName1": "Bogovinje", "lat": "41.9275", "fcode": "LCTY", "description": "Safar", "xywh": {"x": 1912, "y": 1281, "w": 39, "h": 22}}, {"adminCode1": "02", "lng": "66.91151", "geonameId": 7027502, "toponymName": "Surkh", "countryId": "1168579", "fcl": "L", "population": 0, "countryCode": "PK", "name": "Surkh", "fclName": "parks,area, ...", "adminCodes1": {"ISO3166_2": "BA"}, "countryName": "Pakistan", "fcodeName": "locality", "adminName1": "Balochistan", "lat": "28.20545", "fcode": "LCTY", "description": "Surkh", "xywh": {"x": 791, "y": 1296, "w": 39, "h": 18}}, {"adminCode1": "40", "lng": "55.7934", "geonameId": 7540135, "toponymName": "Ch\u0101teh R\u016bz", "countryId": "130758", "fcl": "L", "population": 0, "countryCode": "IR", "name": "Ch\u0101teh R\u016bz", "fclName": "parks,area, ...", "adminCodes1": {"ISO3166_2": "25"}, "countryName": "Iran", "fcodeName": "area", "adminName1": "Yazd", "lat": "31.70114", "fcode": "AREA", "description": "Chath", "xywh": {"x": 943, "y": 1307, "w": 33, "h": 14}}, {"adminCode1": "09", "lng": "51.40647", "geonameId": 289523, "toponymName": "Umm \u015eal\u0101l Mu\u1e29ammad", "countryId": "289688", "fcl": "P", "population": 29391, "countryCode": "QA", "name": "Umm \u015eal\u0101l Mu\u1e29ammad", "fclName": "city, village,...", "adminCodes1": {"ISO3166_2": "US"}, "countryName": "Qatar", "fcodeName": "populated place", "adminName1": "Balad\u012byat Umm \u015eal\u0101l", "lat": "25.41524", "fcode": "PPL", "description": "Muhammad", "xywh": {"x": 996, "y": 1307, "w": 85, "h": 14}}, {"adminCode1": "04", "lng": "33.48488", "geonameId": 10190586, "toponymName": "Marg\u00f3", "countryId": "146669", "fcl": "A", "population": 0, "countryCode": "CY", "name": "Marg\u00f3", "fclName": "country, state, region,...", "adminCodes1": {"ISO3166_2": "01"}, "countryName": "Cyprus", "fcodeName": "second-order administrative division", "adminName1": "Nicosia", "lat": "35.10583", "fcode": "ADM2", "description": "MARGO", "xywh": {"x": 1355, "y": 1316, "w": 40, "h": 13}}, {"adminCode1": "03", "lng": "71.96229", "geonameId": 1173655, "toponymName": "Khwaja Kalle", "countryId": "1168579", "fcl": "P", "population": 0, "countryCode": "PK", "name": "Khw\u0101ja Rashka", "fclName": "city, village,...", "adminCodes1": {"ISO3166_2": "KP"}, "countryName": "Pakistan", "fcodeName": "populated place", "adminName1": "Khyber Pakhtunkhwa", "lat": "34.1497", "fcode": "PPL", "description": "Khwaja", "xywh": {"x": 1905, "y": 1309, "w": 51, "h": 21}}, {"adminCode1": "05", "lng": "71.44598", "geonameId": 1526273, "toponymName": "Nur-Sultan", "countryId": "1522867", "fcl": "P", "population": 345604, "countryCode": "KZ", "name": "Nur-Sultan", "fclName": "city, village,...", "adminCodes1": {"ISO3166_2": "AST"}, "countryName": "Kazakhstan", "fcodeName": "capital of a political entity", "adminName1": "Nur-Sultan", "lat": "51.1801", "fcode": "PPLC", "description": "Sultan", "xywh": {"x": 1965, "y": 1309, "w": 41, "h": 21}}, {"adminCode1": "89", "lng": "13.32196", "geonameId": 3073994, "toponymName": "Kalek", "countryId": "3077311", "fcl": "P", "population": 170, "countryCode": "CZ", "name": "Kalek", "fclName": "city, village,...", "adminCodes1": {"ISO3166_2": "42"}, "countryName": "Czechia", "fcodeName": "populated place", "adminName1": "\u00dasteck\u00fd kraj", "lat": "50.57773", "fcode": "PPL", "description": "Kalek", "xywh": {"x": 1683, "y": 1317, "w": 39, "h": 20}}, {"adminCode1": "02", "lng": "67.22147", "geonameId": 1395537, "toponymName": "Ziarat", "countryId": "1168579", "fcl": "L", "population": 0, "countryCode": "PK", "name": "Ziarat", "fclName": "parks,area, ...", "adminCodes1": {"ISO3166_2": "BA"}, "countryName": "Pakistan", "fcodeName": "area", "adminName1": "Balochistan", "lat": "29.22942", "fcode": "AREA", "description": "Ziarat", "xywh": {"x": 793, "y": 1323, "w": 44, "h": 17}}, {"adminCode1": "KS", "lng": "-100.91515", "geonameId": 5445334, "toponymName": "El Cuartelejo Ruins", "countryId": "6252001", "fcl": "L", "population": 0, "countryCode": "US", "name": "El Cuartelejo Ruins", "fclName": "parks,area, ...", "adminCodes1": {"ISO3166_2": "KS"}, "countryName": "United States", "fcodeName": "park", "adminName1": "Kansas", "lat": "38.67724", "fcode": "PRK", "description": "Ruins", "xywh": {"x": 992, "y": 1342, "w": 39, "h": 18}}, {"adminCode1": "05", "lng": "68.29337", "geonameId": 7352713, "toponymName": "Mulla", "countryId": "1168579", "fcl": "L", "population": 0, "countryCode": "PK", "name": "Mulla", "fclName": "parks,area, ...", "adminCodes1": {"ISO3166_2": "SD"}, "countryName": "Pakistan", "fcodeName": "area", "adminName1": "Sindh", "lat": "24.45745", "fcode": "AREA", "description": "Mulla", "xywh": {"x": 2467, "y": 1328, "w": 38, "h": 21}}, {"adminCode1": "01", "lng": "71.61937", "geonameId": 1347923, "toponymName": "Barang", "countryId": "1168579", "fcl": "L", "population": 0, "countryCode": "PK", "name": "Barang", "fclName": "parks,area, ...", "adminCodes1": {"ISO3166_2": "TA"}, "countryName": "Pakistan", "fcodeName": "locality", "adminName1": "FATA", "lat": "34.61", "fcode": "LCTY", "description": "Barang", "xywh": {"x": 2517, "y": 1328, "w": 51, "h": 21}}, {"adminCode1": "00", "lng": "112.05", "geonameId": 1623051, "toponymName": "Tumbang Kaleh", "countryId": "1643084", "fcl": "P", "population": 0, "countryCode": "ID", "name": "Tumbang Kaleh", "fclName": "city, village,...", "countryName": "Indonesia", "fcodeName": "populated place", "adminName1": "", "lat": "-1.45", "fcode": "PPL", "description": "Kaleh", "xywh": {"x": 1118, "y": 1340, "w": 38, "h": 14}}, {"adminCode1": "00", "lng": "42.51667", "geonameId": 107634, "toponymName": "Ban\u012b M\u0101lik", "countryId": "102358", "fcl": "L", "population": 0, "countryCode": "SA", "name": "Ban\u012b M\u0101lik", "fclName": "parks,area, ...", "countryName": "Saudi Arabia", "fcodeName": "tribal area", "adminName1": "", "lat": "18.33333", "fcode": "TRB", "description": "Malik", "xywh": {"x": 2019, "y": 1334, "w": 36, "h": 21}}, {"adminCode1": "39", "lng": "9.35045", "geonameId": 9410381, "toponymName": "Kachi", "countryId": "2328926", "fcl": "A", "population": 0, "countryCode": "NG", "name": "Kachi", "fclName": "country, state, region,...", "adminCodes1": {"ISO3166_2": "JI"}, "countryName": "Nigeria", "fcodeName": "third-order administrative division", "adminName1": "Jigawa", "lat": "11.71623", "fcode": "ADM3", "description": "Kachi", "xywh": {"x": 582, "y": 1351, "w": 42, "h": 18}}, {"adminCode1": "39", "lng": "8.92096", "geonameId": 6973775, "toponymName": "Lallu", "countryId": "2328926", "fcl": "P", "population": 0, "countryCode": "NG", "name": "Lallu", "fclName": "city, village,...", "adminCodes1": {"ISO3166_2": "JI"}, "countryName": "Nigeria", "fcodeName": "populated place", "adminName1": "Jigawa", "lat": "12.75291", "fcode": "PPL", "description": "Lallu", "xywh": {"x": 1286, "y": 1343, "w": 34, "h": 18}}, {"adminCode1": "04", "lng": "35.03465", "geonameId": 8141831, "toponymName": "H\u0331orbat Na\u1e95or", "countryId": "294640", "fcl": "S", "population": 0, "countryCode": "IL", "name": "H\u0331orbat Na\u1e95or", "fclName": "spot, building, farm", "adminCodes1": {"ISO3166_2": "HA"}, "countryName": "Israel", "fcodeName": "ruin(s)", "adminName1": "Haifa", "lat": "32.46074", "fcode": "RUIN", "description": "Nazor", "xywh": {"x": 1331, "y": 1343, "w": 50, "h": 18}}, {"adminCode1": "05", "lng": "68.01865", "geonameId": 8300422, "toponymName": "Landi", "countryId": "1168579", "fcl": "L", "population": 0, "countryCode": "PK", "name": "Landi", "fclName": "parks,area, ...", "adminCodes1": {"ISO3166_2": "SD"}, "countryName": "Pakistan", "fcodeName": "area", "adminName1": "Sindh", "lat": "24.37242", "fcode": "AREA", "description": "Landi", "xywh": {"x": 1846, "y": 1359, "w": 45, "h": 18}}, {"adminCode1": "10", "lng": "129.09128", "geonameId": 11124100, "toponymName": "Nangmin", "countryId": "1835841", "fcl": "S", "population": 0, "countryCode": "KR", "name": "Nangmin", "fclName": "spot, building, farm", "adminCodes1": {"ISO3166_2": "26"}, "countryName": "South Korea", "fcodeName": "railroad station", "adminName1": "Busan", "lat": "35.20004", "fcode": "RSTN", "description": "NAGMIN", "xywh": {"x": 1844, "y": 1378, "w": 38, "h": 12}}, {"adminCode1": "01", "lng": "72.22498", "geonameId": 8152061, "toponymName": "Maqsad", "countryId": "1512440", "fcl": "P", "population": 0, "countryCode": "UZ", "name": "Maqsad", "fclName": "city, village,...", "adminCodes1": {"ISO3166_2": "AN"}, "countryName": "Uzbekistan", "fcodeName": "populated place", "adminName1": "Andijon", "lat": "40.80637", "fcode": "PPL", "description": "Maksud", "xywh": {"x": 2172, "y": 1386, "w": 52, "h": 18}}, {"adminCode1": "18", "lng": "104.066", "geonameId": 10019295, "toponymName": "Deshu", "countryId": "1814991", "fcl": "P", "population": 0, "countryCode": "CN", "name": "Deshu", "fclName": "city, village,...", "adminCodes1": {"ISO3166_2": "GZ"}, "countryName": "China", "fcodeName": "populated place", "adminName1": "Guizhou", "lat": "26.635", "fcode": "PPL", "description": "Deshu", "xywh": {"x": 1608, "y": 1402, "w": 38, "h": 18}}, {"adminCode1": "36", "lng": "80.70341", "geonameId": 10843502, "toponymName": "Panihan Purwa", "countryId": "1269750", "fcl": "P", "population": 0, "countryCode": "IN", "name": "Panihan Purwa", "fclName": "city, village,...", "adminCodes1": {"ISO3166_2": "UP"}, "countryName": "India", "fcodeName": "populated place", "adminName1": "Uttar Pradesh", "lat": "25.14686", "fcode": "PPL", "description": "Panihan", "xywh": {"x": 1925, "y": 1399, "w": 57, "h": 20}}, {"adminCode1": "N", "lng": "33.56667", "geonameId": 235768, "toponymName": "Cardi", "countryId": "927384", "fcl": "P", "population": 0, "countryCode": "MW", "name": "Cardi", "fclName": "city, village,...", "adminCodes1": {"ISO3166_2": "N"}, "countryName": "Malawi", "fcodeName": "populated place", "adminName1": "Northern Region", "lat": "-9.61667", "fcode": "PPL", "description": "Cardi", "xywh": {"x": 788, "y": 1413, "w": 35, "h": 19}}, {"adminCode1": "LA", "lng": "-92.1193", "geonameId": 4333669, "toponymName": "Monroe", "countryId": "6252001", "fcl": "P", "population": 49598, "countryCode": "US", "name": "Monroe", "fclName": "city, village,...", "adminCodes1": {"ISO3166_2": "LA"}, "countryName": "United States", "fcodeName": "seat of a second-order administrative division", "adminName1": "Louisiana", "lat": "32.50931", "fcode": "PPLA2", "description": "Poste", "xywh": {"x": 831, "y": 1415, "w": 30, "h": 18}}, {"adminCode1": "04", "lng": "61.1388", "geonameId": 1159902, "toponymName": "Qal\u2018eh-ye Ram R\u016bd", "countryId": "130758", "fcl": "S", "population": 0, "countryCode": "IR", "name": "Qal\u2018eh-ye Ram R\u016bd", "fclName": "spot, building, farm", "adminCodes1": {"ISO3166_2": "13"}, "countryName": "Iran", "fcodeName": "ruin(s)", "adminName1": "Sistan and Baluchestan", "lat": "30.3467", "fcode": "RUIN", "description": "Ramrud", "xywh": {"x": 873, "y": 1429, "w": 57, "h": 18}}, {"adminCode1": "KS", "lng": "-100.91515", "geonameId": 5445334, "toponymName": "El Cuartelejo Ruins", "countryId": "6252001", "fcl": "L", "population": 0, "countryCode": "US", "name": "El Cuartelejo Ruins", "fclName": "parks,area, ...", "adminCodes1": {"ISO3166_2": "KS"}, "countryName": "United States", "fcodeName": "park", "adminName1": "Kansas", "lat": "38.67724", "fcode": "PRK", "description": "Ruins", "xywh": {"x": 946, "y": 1429, "w": 39, "h": 18}}, {"adminCode1": "03", "lng": "71.91", "geonameId": 1176441, "toponymName": "Jahanam Zom", "countryId": "1168579", "fcl": "T", "population": 0, "countryCode": "PK", "name": "Jahanam Zom", "fclName": "mountain,hill,rock,... ", "adminCodes1": {"ISO3166_2": "KP"}, "countryName": "Pakistan", "fcodeName": "mountain", "adminName1": "Khyber Pakhtunkhwa", "lat": "35.85417", "fcode": "MT", "description": "Jahanam", "xywh": {"x": 1321, "y": 1431, "w": 51, "h": 14}}, {"adminCode1": "22", "lng": "16.91667", "geonameId": 7603255, "toponymName": "Barh el Gazel", "countryId": "2434508", "fcl": "A", "population": 260865, "countryCode": "TD", "name": "Barh-El-Gazel", "fclName": "country, state, region,...", "adminCodes1": {"ISO3166_2": "BG"}, "countryName": "Chad", "fcodeName": "first-order administrative division", "adminName1": "Barh el Gazel", "lat": "14.66667", "fcode": "ADM1", "description": "Gazel", "xywh": {"x": 508, "y": 1453, "w": 36, "h": 19}}, {"adminCode1": "KS", "lng": "-100.91515", "geonameId": 5445334, "toponymName": "El Cuartelejo Ruins", "countryId": "6252001", "fcl": "L", "population": 0, "countryCode": "US", "name": "El Cuartelejo Ruins", "fclName": "parks,area, ...", "adminCodes1": {"ISO3166_2": "KS"}, "countryName": "United States", "fcodeName": "park", "adminName1": "Kansas", "lat": "38.67724", "fcode": "PRK", "description": "Ruins", "xywh": {"x": 1060, "y": 1449, "w": 41, "h": 20}}, {"adminCode1": "52", "lng": "-0.65416", "geonameId": 3111455, "toponymName": "Rod\u00e9n", "countryId": "2510769", "fcl": "P", "population": 0, "countryCode": "ES", "name": "Rod\u00e9n", "fclName": "city, village,...", "adminCodes1": {"ISO3166_2": "AR"}, "countryName": "Spain", "fcodeName": "populated place", "adminName1": "Aragon", "lat": "41.49553", "fcode": "PPL", "description": "Roden", "xywh": {"x": 2304, "y": 1451, "w": 35, "h": 17}}, {"adminCode1": "08", "lng": "112.71917", "geonameId": 1641792, "toponymName": "Kamal", "countryId": "1643084", "fcl": "P", "population": 22515, "countryCode": "ID", "name": "Kamal", "fclName": "city, village,...", "adminCodes1": {"ISO3166_2": "JI"}, "countryName": "Indonesia", "fcodeName": "populated place", "adminName1": "East Java", "lat": "-7.16778", "fcode": "PPL", "description": "Kamal", "xywh": {"x": 1104, "y": 1467, "w": 48, "h": 19}}, {"adminCode1": "07", "lng": "-17.07444", "geonameId": 2595418, "toponymName": "Khane", "countryId": "2245662", "fcl": "L", "population": 0, "countryCode": "SN", "name": "Khane", "fclName": "parks,area, ...", "adminCodes1": {"ISO3166_2": "TH"}, "countryName": "Senegal", "fcodeName": "locality", "adminName1": "Thi\u00e8s", "lat": "14.53694", "fcode": "LCTY", "description": "Khane", "xywh": {"x": 1158, "y": 1466, "w": 52, "h": 19}}, {"adminCode1": "08", "lng": "67.83333", "geonameId": 1132204, "toponymName": "N\u0101war", "countryId": "1149361", "fcl": "H", "population": 0, "countryCode": "AF", "name": "N\u0101war", "fclName": "stream, lake, ...", "adminCodes1": {"ISO3166_2": "GHA"}, "countryName": "Afghanistan", "fcodeName": "lake", "adminName1": "Ghazni", "lat": "33.66667", "fcode": "LK", "description": "Nawar", "xywh": {"x": 2002, "y": 1469, "w": 47, "h": 12}}, {"adminCode1": "MA", "lng": "-71.05977", "geonameId": 4930956, "toponymName": "Boston", "countryId": "6252001", "fcl": "P", "population": 667137, "countryCode": "US", "name": "Boston", "fclName": "city, village,...", "adminCodes1": {"ISO3166_2": "MA"}, "countryName": "United States", "fcodeName": "seat of a first-order administrative division", "adminName1": "Massachusetts", "lat": "42.35843", "fcode": "PPLA", "description": "Bostono", "xywh": {"x": 2476, "y": 1460, "w": 51, "h": 19}}, {"adminCode1": "01", "lng": "103.6419", "geonameId": 1732741, "toponymName": "Taman Senai", "countryId": "1733045", "fcl": "P", "population": 73176, "countryCode": "MY", "name": "Taman Senai", "fclName": "city, village,...", "adminCodes1": {"ISO3166_2": "01"}, "countryName": "Malaysia", "fcodeName": "populated place", "adminName1": "Johor", "lat": "1.6006", "fcode": "PPL", "description": "Senai", "xywh": {"x": 1178, "y": 1483, "w": 44, "h": 20}}, {"adminCode1": "05", "lng": "68.01865", "geonameId": 8300422, "toponymName": "Landi", "countryId": "1168579", "fcl": "L", "population": 0, "countryCode": "PK", "name": "Landi", "fclName": "parks,area, ...", "adminCodes1": {"ISO3166_2": "SD"}, "countryName": "Pakistan", "fcodeName": "area", "adminName1": "Sindh", "lat": "24.37242", "fcode": "AREA", "description": "Landi", "xywh": {"x": 1376, "y": 1479, "w": 41, "h": 19}}, {"adminCode1": "30", "lng": "67.0703", "geonameId": 1147470, "toponymName": "Bahr\u0101m G\u014dr", "countryId": "1149361", "fcl": "L", "population": 0, "countryCode": "AF", "name": "Bahr\u0101m G\u014dr", "fclName": "parks,area, ...", "adminCodes1": {"ISO3166_2": "BAL"}, "countryName": "Afghanistan", "fcodeName": "locality", "adminName1": "Balkh", "lat": "36.18641", "fcode": "LCTY", "description": "Bahr\u0101m", "xywh": {"x": 2155, "y": 1491, "w": 46, "h": 21}}, {"adminCode1": "38", "lng": "33.51989", "geonameId": 364103, "toponymName": "Wad Medani", "countryId": "366755", "fcl": "P", "population": 332714, "countryCode": "SD", "name": "Wad Madani", "fclName": "city, village,...", "adminCodes1": {"ISO3166_2": "GZ"}, "countryName": "Sudan", "fcodeName": "seat of a first-order administrative division", "adminName1": "Al Jaz\u012brah", "lat": "14.40118", "fcode": "PPLA", "description": "Madani", "xywh": {"x": 1185, "y": 1506, "w": 59, "h": 19}}, {"adminCode1": "09", "lng": "65.12058", "geonameId": 1123166, "toponymName": "Takht-e Dukhtar-e P\u0101dsh\u0101h", "countryId": "1149361", "fcl": "L", "population": 0, "countryCode": "AF", "name": "Takht-e Dukhtar-e P\u0101dsh\u0101h", "fclName": "parks,area, ...", "adminCodes1": {"ISO3166_2": "GHO"}, "countryName": "Afghanistan", "fcodeName": "locality", "adminName1": "Ghowr", "lat": "35.0697", "fcode": "LCTY", "description": "Padshah", "xywh": {"x": 1250, "y": 1506, "w": 54, "h": 19}}, {"adminCode1": "14", "lng": "22.65917", "geonameId": 590630, "toponymName": "Liiva-Putla", "countryId": "453733", "fcl": "P", "population": 0, "countryCode": "EE", "name": "Liiva-Putla", "fclName": "city, village,...", "adminCodes1": {"ISO3166_2": "74"}, "countryName": "Estonia", "fcodeName": "populated place", "adminName1": "Saare", "lat": "58.38833", "fcode": "PPL", "description": "Putla", "xywh": {"x": 2604, "y": 1513, "w": 32, "h": 13}}, {"adminCode1": "13", "lng": "46.7022", "geonameId": 23700, "toponymName": "Koleh Sav\u0101r\u012b", "countryId": "130758", "fcl": "P", "population": 0, "countryCode": "IR", "name": "Koleh Sav\u0101r\u012b", "fclName": "city, village,...", "adminCodes1": {"ISO3166_2": "17"}, "countryName": "Iran", "fcodeName": "populated place", "adminName1": "Kerm\u0101nsh\u0101h", "lat": "34.4123", "fcode": "PPL", "description": "Koleh", "xywh": {"x": 707, "y": 1522, "w": 35, "h": 25}}, {"adminCode1": "09", "lng": "1.81495", "geonameId": 2440464, "toponymName": "Nodir\u00e9 B\u00e9nafar\u00e9", "countryId": "2440476", "fcl": "P", "population": 0, "countryCode": "NE", "name": "Nodir\u00e9 B\u00e9nafar\u00e9", "fclName": "city, village,...", "adminCodes1": {"ISO3166_2": "6"}, "countryName": "Niger", "fcodeName": "populated place", "adminName1": "Tillab\u00e9ri", "lat": "13.35385", "fcode": "PPL", "description": "Nodire", "xywh": {"x": 764, "y": 1524, "w": 46, "h": 24}}, {"adminCode1": "15", "lng": "15.26749", "geonameId": 6535961, "toponymName": "Giardini-Naxos", "countryId": "3175395", "fcl": "A", "population": 9268, "countryCode": "IT", "name": "Giardini Naxos", "fclName": "country, state, region,...", "adminCodes1": {"ISO3166_2": "82"}, "countryName": "Italy", "fcodeName": "third-order administrative division", "adminName1": "Sicily", "lat": "37.82226", "fcode": "ADM3", "description": "Jardini", "xywh": {"x": 1148, "y": 1527, "w": 58, "h": 19}}, {"adminCode1": "02", "lng": "62.7976", "geonameId": 1331291, "toponymName": "Pusht Shankh", "countryId": "1168579", "fcl": "L", "population": 0, "countryCode": "PK", "name": "Pusht Shankh", "fclName": "parks,area, ...", "adminCodes1": {"ISO3166_2": "BA"}, "countryName": "Pakistan", "fcodeName": "area", "adminName1": "Balochistan", "lat": "28.0228", "fcode": "AREA", "description": "Pusht", "xywh": {"x": 1897, "y": 1523, "w": 38, "h": 18}}, {"adminCode1": "22", "lng": "51.99694", "geonameId": 110971, "toponymName": "K\u016bh-e Z\u012br K\u016bh", "countryId": "130758", "fcl": "T", "population": 0, "countryCode": "IR", "name": "K\u016bh-e Z\u012br K\u016bh", "fclName": "mountain,hill,rock,... ", "adminCodes1": {"ISO3166_2": "06"}, "countryName": "Iran", "fcodeName": "mountain", "adminName1": "Bushehr", "lat": "28.12611", "fcode": "MT", "description": "ZIRREH", "xywh": {"x": 1064, "y": 1543, "w": 47, "h": 21}}, {"adminCode1": "02", "lng": "64.36216", "geonameId": 11199909, "toponymName": "Baluch", "countryId": "1168579", "fcl": "L", "population": 0, "countryCode": "PK", "name": "Baluch", "fclName": "parks,area, ...", "adminCodes1": {"ISO3166_2": "BA"}, "countryName": "Pakistan", "fcodeName": "area", "adminName1": "Balochistan", "lat": "29.11253", "fcode": "AREA", "description": "Baluch", "xywh": {"x": 771, "y": 1559, "w": 47, "h": 21}}, {"adminCode1": "02", "lng": "63.20802", "geonameId": 1336593, "toponymName": "Nawab Rahi", "countryId": "1168579", "fcl": "L", "population": 0, "countryCode": "PK", "name": "Nawab Rahi", "fclName": "parks,area, ...", "adminCodes1": {"ISO3166_2": "BA"}, "countryName": "Pakistan", "fcodeName": "area", "adminName1": "Balochistan", "lat": "25.5692", "fcode": "AREA", "description": "Naw\u0101b", "xywh": {"x": 2077, "y": 1558, "w": 45, "h": 20}}, {"adminCode1": "04", "lng": "60.32887", "geonameId": 1161222, "toponymName": "Gar\u0101gheh", "countryId": "130758", "fcl": "P", "population": 0, "countryCode": "IR", "name": "Gar\u0101gheh", "fclName": "city, village,...", "adminCodes1": {"ISO3166_2": "13"}, "countryName": "Iran", "fcodeName": "populated place", "adminName1": "Sistan and Baluchestan", "lat": "30.00608", "fcode": "PPL", "description": "Garagheh", "xywh": {"x": 574, "y": 1577, "w": 62, "h": 15}}, {"adminCode1": "81", "lng": "49.38333", "geonameId": 531630, "toponymName": "Malaya Kandala", "countryId": "2017370", "fcl": "P", "population": 0, "countryCode": "RU", "name": "Malaya Kandala", "fclName": "city, village,...", "adminCodes1": {"ISO3166_2": "ULY"}, "countryName": "Russia", "fcodeName": "populated place", "adminName1": "Ulyanovsk", "lat": "54.48333", "fcode": "PPL", "description": "Kandala", "xywh": {"x": 1629, "y": 1573, "w": 57, "h": 15}}, {"adminCode1": "38", "lng": "38.3272", "geonameId": 866315, "toponymName": "Gora Shekh", "countryId": "2017370", "fcl": "T", "population": 0, "countryCode": "RU", "name": "Gora Shekh", "fclName": "mountain,hill,rock,... ", "adminCodes1": {"ISO3166_2": "KDA"}, "countryName": "Russia", "fcodeName": "mountain", "adminName1": "Krasnodarskiy", "lat": "44.4092", "fcode": "MT", "description": "Shekh", "xywh": {"x": 2498, "y": 1575, "w": 40, "h": 20}}, {"adminCode1": "37", "lng": "7.75111", "geonameId": 2499055, "toponymName": "Drean", "countryId": "2589581", "fcl": "P", "population": 55147, "countryCode": "DZ", "name": "Drean", "fclName": "city, village,...", "adminCodes1": {"ISO3166_2": "23"}, "countryName": "Algeria", "fcodeName": "populated place", "adminName1": "Annaba", "lat": "36.68482", "fcode": "PPL", "description": "Drean", "xywh": {"x": 650, "y": 1610, "w": 46, "h": 21}}, {"adminCode1": "05", "lng": "50.37944", "geonameId": 133258, "toponymName": "God\u0101r-e N\u0101rg\u016bn", "countryId": "130758", "fcl": "L", "population": 0, "countryCode": "IR", "name": "God\u0101r-e N\u0101rg\u016bn", "fclName": "parks,area, ...", "adminCodes1": {"ISO3166_2": "18"}, "countryName": "Iran", "fcodeName": "locality", "adminName1": "Kohg\u012bl\u016byeh va B\u016byer A\u1e29mad", "lat": "30.79742", "fcode": "LCTY", "description": "GODAR", "xywh": {"x": 905, "y": 1603, "w": 44, "h": 21}}, {"adminCode1": "16", "lng": "77.47109", "geonameId": 10513777, "toponymName": "Sh\u0101ha", "countryId": "1269750", "fcl": "P", "population": 0, "countryCode": "IN", "name": "Sh\u0101ha", "fclName": "city, village,...", "adminCodes1": {"ISO3166_2": "MH"}, "countryName": "India", "fcodeName": "populated place", "adminName1": "Maharashtra", "lat": "20.52907", "fcode": "PPL", "description": "SHAHA", "xywh": {"x": 965, "y": 1604, "w": 49, "h": 21}}, {"adminCode1": "08", "lng": "67.62144", "geonameId": 1130364, "toponymName": "Purdil", "countryId": "1149361", "fcl": "P", "population": 0, "countryCode": "AF", "name": "Purdil", "fclName": "city, village,...", "adminCodes1": {"ISO3166_2": "GHA"}, "countryName": "Afghanistan", "fcodeName": "populated place", "adminName1": "Ghazni", "lat": "32.65206", "fcode": "PPL", "description": "Purdil", "xywh": {"x": 2395, "y": 1603, "w": 44, "h": 21}}, {"adminCode1": "05", "lng": "28.13817", "geonameId": 7663224, "toponymName": "Bador", "countryId": "7909807", "fcl": "P", "population": 0, "countryCode": "SS", "name": "Bador", "fclName": "city, village,...", "adminCodes1": {"ISO3166_2": "BN"}, "countryName": "South Sudan", "fcodeName": "populated place", "adminName1": "Northern Bahr al Ghazal", "lat": "9.13504", "fcode": "PPL", "description": "Bador", "xywh": {"x": 2488, "y": 1622, "w": 40, "h": 19}}, {"adminCode1": "00", "lng": "42.51667", "geonameId": 107634, "toponymName": "Ban\u012b M\u0101lik", "countryId": "102358", "fcl": "L", "population": 0, "countryCode": "SA", "name": "Ban\u012b M\u0101lik", "fclName": "parks,area, ...", "countryName": "Saudi Arabia", "fcodeName": "tribal area", "adminName1": "", "lat": "18.33333", "fcode": "TRB", "description": "MALIK", "xywh": {"x": 836, "y": 1636, "w": 51, "h": 18}}, {"adminCode1": "17", "lng": "17.52972", "geonameId": 2433786, "toponymName": "Direk", "countryId": "2434508", "fcl": "P", "population": 0, "countryCode": "TD", "name": "Direk", "fclName": "city, village,...", "adminCodes1": {"ISO3166_2": "MC"}, "countryName": "Chad", "fcodeName": "populated place", "adminName1": "Moyen-Chari", "lat": "9.89853", "fcode": "PPL", "description": "Direk", "xywh": {"x": 975, "y": 1641, "w": 34, "h": 16}}, {"adminCode1": "02", "lng": "44.8529", "geonameId": 11225640, "toponymName": "Kundi", "countryId": "174982", "fcl": "L", "population": 0, "countryCode": "AM", "name": "Kundi", "fclName": "parks,area, ...", "adminCodes1": {"ISO3166_2": "AR"}, "countryName": "Armenia", "fcodeName": "field(s)", "adminName1": "Ararat", "lat": "39.93469", "fcode": "FLD", "description": "Kundi", "xywh": {"x": 681, "y": 1651, "w": 46, "h": 18}}, {"adminCode1": "04", "lng": "59.59288", "geonameId": 118426, "toponymName": "Rob\u0101\u0163-e Meshk\u012b", "countryId": "130758", "fcl": "L", "population": 0, "countryCode": "IR", "name": "Rob\u0101\u0163-e Meshk\u012b", "fclName": "parks,area, ...", "adminCodes1": {"ISO3166_2": "13"}, "countryName": "Iran", "fcodeName": "locality", "adminName1": "Sistan and Baluchestan", "lat": "29.35965", "fcode": "LCTY", "description": "Robat", "xywh": {"x": 791, "y": 1651, "w": 46, "h": 18}}, {"adminCode1": "16", "lng": "72.96355", "geonameId": 1254661, "toponymName": "Th\u0101ne", "countryId": "1269750", "fcl": "P", "population": 1261517, "countryCode": "IN", "name": "Th\u0101ne", "fclName": "city, village,...", "adminCodes1": {"ISO3166_2": "MH"}, "countryName": "India", "fcodeName": "populated place", "adminName1": "Maharashtra", "lat": "19.19704", "fcode": "PPL", "description": "Thana", "xywh": {"x": 847, "y": 1651, "w": 43, "h": 18}}, {"adminCode1": "83", "lng": "88.69269", "geonameId": 1186583, "toponymName": "T\u0101nail", "countryId": "1210997", "fcl": "P", "population": 0, "countryCode": "BD", "name": "T\u0101nail", "fclName": "city, village,...", "adminCodes1": {"ISO3166_2": "E"}, "countryName": "Bangladesh", "fcodeName": "populated place", "adminName1": "Rajshahi Division", "lat": "24.83095", "fcode": "PPL", "description": "Tanail", "xywh": {"x": 2028, "y": 1684, "w": 42, "h": 18}}, {"adminCode1": "00", "lng": "110.2", "geonameId": 1644576, "toponymName": "Galur", "countryId": "1643084", "fcl": "P", "population": 0, "countryCode": "ID", "name": "Galur", "fclName": "city, village,...", "countryName": "Indonesia", "fcodeName": "populated place", "adminName1": "", "lat": "-7.93333", "fcode": "PPL", "description": "Galur", "xywh": {"x": 2149, "y": 1680, "w": 43, "h": 19}}, {"adminCode1": "21", "lng": "-72.44", "geonameId": 3671291, "toponymName": "Puerto Villamizar", "countryId": "3686110", "fcl": "P", "population": 0, "countryCode": "CO", "name": "Puerto Villamizar", "fclName": "city, village,...", "adminCodes1": {"ISO3166_2": "NSA"}, "countryName": "Colombia", "fcodeName": "populated place", "adminName1": "Norte de Santander", "lat": "8.31639", "fcode": "PPL", "description": "Purto", "xywh": {"x": 2444, "y": 1685, "w": 33, "h": 19}}, {"adminCode1": "40", "lng": "78.55757", "geonameId": 7302826, "toponymName": "Lal Bahadur Nagar", "countryId": "1269750", "fcl": "P", "population": 261987, "countryCode": "IN", "name": "Lal Bahadur Nagar", "fclName": "city, village,...", "adminCodes1": {"ISO3166_2": "TG"}, "countryName": "India", "fcodeName": "populated place", "adminName1": "Telangana", "lat": "17.34769", "fcode": "PPL", "description": "Bahadur", "xywh": {"x": 2334, "y": 1704, "w": 60, "h": 16}}, {"adminCode1": "04", "lng": "148.6", "geonameId": 8260960, "toponymName": "Safia", "countryId": "2088628", "fcl": "S", "population": 0, "countryCode": "PG", "name": "Safia", "fclName": "spot, building, farm", "adminCodes1": {"ISO3166_2": "NPP"}, "countryName": "Papua New Guinea", "fcodeName": "airport", "adminName1": "Northern Province", "lat": "-9.583", "fcode": "AIRP", "description": "Safia", "xywh": {"x": 2200, "y": 1724, "w": 32, "h": 14}}, {"adminCode1": "35", "lng": "78.33014", "geonameId": 1266620, "toponymName": "Khurai", "countryId": "1269750", "fcl": "P", "population": 31613, "countryCode": "IN", "name": "Khurai", "fclName": "city, village,...", "adminCodes1": {"ISO3166_2": "MP"}, "countryName": "India", "fcodeName": "populated place", "adminName1": "Madhya Pradesh", "lat": "24.04372", "fcode": "PPL", "description": "Khurai", "xywh": {"x": 2271, "y": 1719, "w": 47, "h": 18}}, {"adminCode1": "02", "lng": "63.80147", "geonameId": 10983726, "toponymName": "Salihan", "countryId": "1168579", "fcl": "L", "population": 0, "countryCode": "PK", "name": "Salihan", "fclName": "parks,area, ...", "adminCodes1": {"ISO3166_2": "BA"}, "countryName": "Pakistan", "fcodeName": "area", "adminName1": "Balochistan", "lat": "29.41265", "fcode": "AREA", "description": "Salihan", "xywh": {"x": 1980, "y": 1734, "w": 50, "h": 16}}, {"adminCode1": "07", "lng": "51.69381", "geonameId": 46760, "toponymName": "N\u016bshk", "countryId": "130758", "fcl": "P", "population": 0, "countryCode": "IR", "name": "N\u016bshk", "fclName": "city, village,...", "adminCodes1": {"ISO3166_2": "14"}, "countryName": "Iran", "fcodeName": "populated place", "adminName1": "Fars", "lat": "30.334", "fcode": "PPL", "description": "NUSHK", "xywh": {"x": 2559, "y": 1728, "w": 80, "h": 21}}, {"adminCode1": "12", "lng": "124.63194", "geonameId": 1697686, "toponymName": "Nikaan", "countryId": "1694008", "fcl": "P", "population": 0, "countryCode": "PH", "name": "Nikaan", "fclName": "city, village,...", "adminCodes1": {"ISO3166_2": "12"}, "countryName": "Philippines", "fcodeName": "populated place", "adminName1": "Soccsksargen", "lat": "7.44917", "fcode": "PPL", "description": "Nikaan", "xywh": {"x": 443, "y": 1756, "w": 118, "h": 36}}, {"adminCode1": "04", "lng": "59.59288", "geonameId": 118426, "toponymName": "Rob\u0101\u0163-e Meshk\u012b", "countryId": "130758", "fcl": "L", "population": 0, "countryCode": "IR", "name": "Rob\u0101\u0163-e Meshk\u012b", "fclName": "parks,area, ...", "adminCodes1": {"ISO3166_2": "13"}, "countryName": "Iran", "fcodeName": "locality", "adminName1": "Sistan and Baluchestan", "lat": "29.35965", "fcode": "LCTY", "description": "Robat", "xywh": {"x": 1768, "y": 1765, "w": 39, "h": 19}}, {"adminCode1": "32", "lng": "67.22736", "geonameId": 1127935, "toponymName": "Saiyad", "countryId": "1149361", "fcl": "P", "population": 0, "countryCode": "AF", "name": "Saiyad", "fclName": "city, village,...", "adminCodes1": {"ISO3166_2": "SAM"}, "countryName": "Afghanistan", "fcodeName": "populated place", "adminName1": "Samangan", "lat": "36.07016", "fcode": "PPL", "description": "Saiad", "xywh": {"x": 896, "y": 1784, "w": 35, "h": 15}}, {"adminCode1": "08", "lng": "73.10152", "geonameId": 8144342, "toponymName": "Langar", "countryId": "1527747", "fcl": "P", "population": 0, "countryCode": "KG", "name": "Langar", "fclName": "city, village,...", "adminCodes1": {"ISO3166_2": "O"}, "countryName": "Kyrgyzstan", "fcodeName": "populated place", "adminName1": "Osh", "lat": "40.40665", "fcode": "PPL", "description": "Langar", "xywh": {"x": 941, "y": 1784, "w": 50, "h": 16}}, {"adminCode1": "16", "lng": "72.96355", "geonameId": 1254661, "toponymName": "Th\u0101ne", "countryId": "1269750", "fcl": "P", "population": 1261517, "countryCode": "IN", "name": "Th\u0101ne", "fclName": "city, village,...", "adminCodes1": {"ISO3166_2": "MH"}, "countryName": "India", "fcodeName": "populated place", "adminName1": "Maharashtra", "lat": "19.19704", "fcode": "PPL", "description": "Thana", "xywh": {"x": 964, "y": 1798, "w": 42, "h": 16}}, {"adminCode1": "41", "lng": "66.1129", "geonameId": 1449408, "toponymName": "Siy\u0101h Baghal", "countryId": "1149361", "fcl": "T", "population": 0, "countryCode": "AF", "name": "Siy\u0101h Baghal", "fclName": "mountain,hill,rock,... ", "adminCodes1": {"ISO3166_2": "DAY"}, "countryName": "Afghanistan", "fcodeName": "mountain", "adminName1": "Daykundi", "lat": "33.61765", "fcode": "MT", "description": "Baghal", "xywh": {"x": 2575, "y": 1790, "w": 48, "h": 17}}, {"adminCode1": "29", "lng": "98.8598", "geonameId": 9988007, "toponymName": "Kulao", "countryId": "1814991", "fcl": "P", "population": 0, "countryCode": "CN", "name": "Kulao", "fclName": "city, village,...", "adminCodes1": {"ISO3166_2": "YN"}, "countryName": "China", "fcodeName": "populated place", "adminName1": "Yunnan", "lat": "24.8912", "fcode": "PPL", "description": "Kulao", "xywh": {"x": 2346, "y": 1796, "w": 40, "h": 20}}, {"adminCode1": "19", "lng": "61.80074", "geonameId": 1437340, "toponymName": "N\u0101w\u00ear-e Kirt\u0101kah", "countryId": "1149361", "fcl": "H", "population": 0, "countryCode": "AF", "name": "N\u0101w\u00ear-e Kirt\u0101kah", "fclName": "stream, lake, ...", "adminCodes1": {"ISO3166_2": "NIM"}, "countryName": "Afghanistan", "fcodeName": "intermittent lake", "adminName1": "Nimroz", "lat": "29.60691", "fcode": "LKI", "description": "Kirtakah", "xywh": {"x": 975, "y": 1811, "w": 59, "h": 20}}, {"adminCode1": "02", "lng": "63.32694", "geonameId": 1337392, "toponymName": "Gar\u016bki D\u0101t", "countryId": "1168579", "fcl": "L", "population": 0, "countryCode": "PK", "name": "Gar\u016bki D\u0101t", "fclName": "parks,area, ...", "adminCodes1": {"ISO3166_2": "BA"}, "countryName": "Pakistan", "fcodeName": "area", "adminName1": "Balochistan", "lat": "25.69194", "fcode": "AREA", "description": "GARUKI", "xywh": {"x": 1105, "y": 1809, "w": 41, "h": 13}}, {"adminCode1": "81", "lng": "21.79331", "geonameId": 759615, "toponymName": "Samule", "countryId": "798544", "fcl": "P", "population": 0, "countryCode": "PL", "name": "Samule", "fclName": "city, village,...", "adminCodes1": {"ISO3166_2": "PD"}, "countryName": "Poland", "fcodeName": "populated place", "adminName1": "Podlasie", "lat": "53.3834", "fcode": "PPL", "description": "\u015eamule", "xywh": {"x": 1829, "y": 1803, "w": 49, "h": 19}}, {"adminCode1": "30", "lng": "67.11087", "geonameId": 1133616, "toponymName": "Maz\u0101r-e Shar\u012bf", "countryId": "1149361", "fcl": "P", "population": 303282, "countryCode": "AF", "name": "Mazari Sharif", "fclName": "city, village,...", "adminCodes1": {"ISO3166_2": "BAL"}, "countryName": "Afghanistan", "fcodeName": "seat of a first-order administrative division", "adminName1": "Balkh", "lat": "36.70904", "fcode": "PPLA", "description": "MAZARI", "xywh": {"x": 1918, "y": 1810, "w": 43, "h": 17}}, {"adminCode1": "26", "lng": "51.73872", "geonameId": 404716, "toponymName": "K\u016bh-e K\u0101s\u016bnak", "countryId": "130758", "fcl": "T", "population": 0, "countryCode": "IR", "name": "K\u016bh-e K\u0101s\u016bnak", "fclName": "mountain,hill,rock,... ", "adminCodes1": {"ISO3166_2": "07"}, "countryName": "Iran", "fcodeName": "mountain", "adminName1": "Tehr\u0101n", "lat": "35.95559", "fcode": "MT", "description": "KASULAK", "xywh": {"x": 564, "y": 1823, "w": 50, "h": 8}}, {"adminCode1": "00", "lng": "42.51667", "geonameId": 107634, "toponymName": "Ban\u012b M\u0101lik", "countryId": "102358", "fcl": "L", "population": 0, "countryCode": "SA", "name": "Ban\u012b M\u0101lik", "fclName": "parks,area, ...", "countryName": "Saudi Arabia", "fcodeName": "tribal area", "adminName1": "", "lat": "18.33333", "fcode": "TRB", "description": "MALIK", "xywh": {"x": 1757, "y": 1831, "w": 33, "h": 19}}, {"adminCode1": "04", "lng": "61.4457", "geonameId": 1158545, "toponymName": "T\u012bjn\u0101n-e B\u0101l\u0101", "countryId": "130758", "fcl": "P", "population": 0, "countryCode": "IR", "name": "T\u012bjn\u0101n-e B\u0101l\u0101", "fclName": "city, village,...", "adminCodes1": {"ISO3166_2": "13"}, "countryName": "Iran", "fcodeName": "populated place", "adminName1": "Sistan and Baluchestan", "lat": "26.78461", "fcode": "PPL", "description": "TEZNAN", "xywh": {"x": 1797, "y": 1832, "w": 40, "h": 19}}, {"adminCode1": "07", "lng": "54.3974", "geonameId": 45304, "toponymName": "Bar\u0101b", "countryId": "130758", "fcl": "P", "population": 0, "countryCode": "IR", "name": "Bar\u0101b", "fclName": "city, village,...", "adminCodes1": {"ISO3166_2": "14"}, "countryName": "Iran", "fcodeName": "populated place", "adminName1": "Fars", "lat": "28.7253", "fcode": "PPL", "description": "Barab", "xywh": {"x": 1868, "y": 1835, "w": 35, "h": 19}}, {"adminCode1": "02", "lng": "66.80627", "geonameId": 1375939, "toponymName": "Jabar", "countryId": "1168579", "fcl": "L", "population": 0, "countryCode": "PK", "name": "Jabar", "fclName": "parks,area, ...", "adminCodes1": {"ISO3166_2": "BA"}, "countryName": "Pakistan", "fcodeName": "area", "adminName1": "Balochistan", "lat": "30.92977", "fcode": "AREA", "description": "Jabar", "xywh": {"x": 2531, "y": 1830, "w": 39, "h": 20}}, {"adminCode1": "02", "lng": "64.20057", "geonameId": 10990444, "toponymName": "Gargarok", "countryId": "1168579", "fcl": "T", "population": 0, "countryCode": "PK", "name": "Gargarok", "fclName": "mountain,hill,rock,... ", "adminCodes1": {"ISO3166_2": "BA"}, "countryName": "Pakistan", "fcodeName": "mountain", "adminName1": "Balochistan", "lat": "29.3556", "fcode": "MT", "description": "Gargarok", "xywh": {"x": 2015, "y": 1847, "w": 61, "h": 18}}, {"adminCode1": "02", "lng": "63.59087", "geonameId": 1181950, "toponymName": "Ch\u0101gai District", "countryId": "1168579", "fcl": "A", "population": 202562, "countryCode": "PK", "name": "Ch\u0101gai", "fclName": "country, state, region,...", "adminCodes1": {"ISO3166_2": "BA"}, "countryName": "Pakistan", "fcodeName": "second-order administrative division", "adminName1": "Balochistan", "lat": "28.98765", "fcode": "ADM2", "description": "Ch\u0101gai", "xywh": {"x": 2116, "y": 1855, "w": 66, "h": 23}}, {"adminCode1": "80", "lng": "12.92767", "geonameId": 2215674, "toponymName": "K\u0101f L\u0101llah", "countryId": "2215636", "fcl": "T", "population": 0, "countryCode": "LY", "name": "K\u0101f L\u0101llah", "fclName": "mountain,hill,rock,... ", "adminCodes1": {"ISO3166_2": "JG"}, "countryName": "Libya", "fcodeName": "peak", "adminName1": "Jabal al Gharbi", "lat": "31.75067", "fcode": "PK", "description": "Lallah", "xywh": {"x": 2495, "y": 1852, "w": 40, "h": 20}}, {"adminCode1": "02", "lng": "63.05159", "geonameId": 10983192, "toponymName": "Darband", "countryId": "1168579", "fcl": "L", "population": 0, "countryCode": "PK", "name": "Darband", "fclName": "parks,area, ...", "adminCodes1": {"ISO3166_2": "BA"}, "countryName": "Pakistan", "fcodeName": "area", "adminName1": "Balochistan", "lat": "29.331", "fcode": "AREA", "description": "Darband", "xywh": {"x": 1587, "y": 1866, "w": 54, "h": 20}}, {"adminCode1": "09", "lng": "51.40647", "geonameId": 289523, "toponymName": "Umm \u015eal\u0101l Mu\u1e29ammad", "countryId": "289688", "fcl": "P", "population": 29391, "countryCode": "QA", "name": "Umm \u015eal\u0101l Mu\u1e29ammad", "fclName": "city, village,...", "adminCodes1": {"ISO3166_2": "US"}, "countryName": "Qatar", "fcodeName": "populated place", "adminName1": "Balad\u012byat Umm \u015eal\u0101l", "lat": "25.41524", "fcode": "PPL", "description": "Muhammad", "xywh": {"x": 844, "y": 1878, "w": 83, "h": 17}}, {"adminCode1": "02", "lng": "64.44132", "geonameId": 10994349, "toponymName": "Dugnan", "countryId": "1168579", "fcl": "P", "population": 0, "countryCode": "PK", "name": "Dugnan", "fclName": "city, village,...", "adminCodes1": {"ISO3166_2": "BA"}, "countryName": "Pakistan", "fcodeName": "populated place", "adminName1": "Balochistan", "lat": "29.31076", "fcode": "PPL", "description": "Dugnan", "xywh": {"x": 2069, "y": 1878, "w": 50, "h": 16}}, {"adminCode1": "02", "lng": "65.5213", "geonameId": 7540983, "toponymName": "Dumag", "countryId": "1168579", "fcl": "P", "population": 0, "countryCode": "PK", "name": "Dumag", "fclName": "city, village,...", "adminCodes1": {"ISO3166_2": "BA"}, "countryName": "Pakistan", "fcodeName": "populated place", "adminName1": "Balochistan", "lat": "28.05942", "fcode": "PPL", "description": "Dumag", "xywh": {"x": 596, "y": 1888, "w": 48, "h": 23}}, {"adminCode1": "02", "lng": "61.56259", "geonameId": 10975382, "toponymName": "Saindak", "countryId": "1168579", "fcl": "L", "population": 0, "countryCode": "PK", "name": "Saindak", "fclName": "parks,area, ...", "adminCodes1": {"ISO3166_2": "BA"}, "countryName": "Pakistan", "fcodeName": "area", "adminName1": "Balochistan", "lat": "29.33517", "fcode": "AREA", "description": "Saindak", "xywh": {"x": 1034, "y": 1891, "w": 59, "h": 18}}, {"adminCode1": "16", "lng": "72.96355", "geonameId": 1254661, "toponymName": "Th\u0101ne", "countryId": "1269750", "fcl": "P", "population": 1261517, "countryCode": "IN", "name": "Th\u0101ne", "fclName": "city, village,...", "adminCodes1": {"ISO3166_2": "MH"}, "countryName": "India", "fcodeName": "populated place", "adminName1": "Maharashtra", "lat": "19.19704", "fcode": "PPL", "description": "Thana", "xywh": {"x": 1106, "y": 1892, "w": 43, "h": 19}}, {"adminCode1": "02", "lng": "65.44819", "geonameId": 1171624, "toponymName": "Mahabat", "countryId": "1168579", "fcl": "P", "population": 0, "countryCode": "PK", "name": "Mahabat", "fclName": "city, village,...", "adminCodes1": {"ISO3166_2": "BA"}, "countryName": "Pakistan", "fcodeName": "populated place", "adminName1": "Balochistan", "lat": "29.27649", "fcode": "PPL", "description": "Mahabat", "xywh": {"x": 2441, "y": 1882, "w": 60, "h": 18}}, {"adminCode1": "04", "lng": "60.7323", "geonameId": 1159017, "toponymName": "R\u016bdkh\u0101neh-ye Kharneh", "countryId": "130758", "fcl": "H", "population": 0, "countryCode": "IR", "name": "R\u016bdkh\u0101neh-ye Kharneh", "fclName": "stream, lake, ...", "adminCodes1": {"ISO3166_2": "13"}, "countryName": "Iran", "fcodeName": "stream", "adminName1": "Sistan and Baluchestan", "lat": "29.2498", "fcode": "STM", "description": "Harneh", "xywh": {"x": 712, "y": 1909, "w": 49, "h": 29}}, {"adminCode1": "02", "lng": "67.0637", "geonameId": 7375318, "toponymName": "Shaikh", "countryId": "1168579", "fcl": "L", "population": 0, "countryCode": "PK", "name": "Shaikh", "fclName": "parks,area, ...", "adminCodes1": {"ISO3166_2": "BA"}, "countryName": "Pakistan", "fcodeName": "tribal area", "adminName1": "Balochistan", "lat": "27.30717", "fcode": "TRB", "description": "Shaikh", "xywh": {"x": 2565, "y": 1934, "w": 46, "h": 17}}, {"adminCode1": "06", "lng": "58.55073", "geonameId": 412216, "toponymName": "S\u016braj", "countryId": "286963", "fcl": "P", "population": 0, "countryCode": "OM", "name": "S\u016braj", "fclName": "city, village,...", "adminCodes1": {"ISO3166_2": "MA"}, "countryName": "Oman", "fcodeName": "section of populated place", "adminName1": "Muscat", "lat": "23.62207", "fcode": "PPLX", "description": "Suraj", "xywh": {"x": 2276, "y": 1940, "w": 38, "h": 18}}, {"adminCode1": "17", "lng": "116.2033", "geonameId": 7056662, "toponymName": "Butik", "countryId": "1643084", "fcl": "P", "population": 0, "countryCode": "ID", "name": "Butik", "fclName": "city, village,...", "adminCodes1": {"ISO3166_2": "NB"}, "countryName": "Indonesia", "fcodeName": "populated place", "adminName1": "West Nusa Tenggara", "lat": "-8.8274", "fcode": "PPL", "description": "Butik", "xywh": {"x": 1668, "y": 1945, "w": 33, "h": 15}}, {"adminCode1": "LA", "lng": "-93.2044", "geonameId": 4330236, "toponymName": "Lake Charles", "countryId": "6252001", "fcl": "P", "population": 76070, "countryCode": "US", "name": "Lake Charles", "fclName": "city, village,...", "adminCodes1": {"ISO3166_2": "LA"}, "countryName": "United States", "fcodeName": "seat of a second-order administrative division", "adminName1": "Louisiana", "lat": "30.21309", "fcode": "PPLA2", "description": "Charles", "xywh": {"x": 1712, "y": 1945, "w": 48, "h": 15}}, {"adminCode1": "60", "lng": "26.15", "geonameId": 729421, "toponymName": "Makak", "countryId": "732800", "fcl": "P", "population": 0, "countryCode": "BG", "name": "Makak", "fclName": "city, village,...", "adminCodes1": {"ISO3166_2": "25"}, "countryName": "Bulgaria", "fcodeName": "populated place", "adminName1": "Targovishte", "lat": "42.98333", "fcode": "PPL", "description": "Makak", "xywh": {"x": 1055, "y": 1960, "w": 45, "h": 18}}, {"adminCode1": "24", "lng": "102.75384", "geonameId": 1658648, "toponymName": "Ban Thanak", "countryId": "1655842", "fcl": "P", "population": 0, "countryCode": "LA", "name": "Ban Thanak", "fclName": "city, village,...", "adminCodes1": {"ISO3166_2": "VT"}, "countryName": "Laos", "fcodeName": "populated place", "adminName1": "Vientiane Prefecture", "lat": "18.09407", "fcode": "PPL", "description": "Thanak", "xywh": {"x": 1111, "y": 1961, "w": 48, "h": 19}}, {"adminCode1": "02", "lng": "65.48808", "geonameId": 11225133, "toponymName": "Kuchakki Chah", "countryId": "1168579", "fcl": "P", "population": 0, "countryCode": "PK", "name": "Kuchakki Chah", "fclName": "city, village,...", "adminCodes1": {"ISO3166_2": "BA"}, "countryName": "Pakistan", "fcodeName": "populated place", "adminName1": "Balochistan", "lat": "29.0695", "fcode": "PPL", "description": "Kuchakki", "xywh": {"x": 2394, "y": 1953, "w": 66, "h": 21}}, {"adminCode1": "10", "lng": "63.61893", "geonameId": 1142039, "toponymName": "Galah Ch\u0101h", "countryId": "1149361", "fcl": "H", "population": 0, "countryCode": "AF", "name": "Galah Ch\u0101h", "fclName": "stream, lake, ...", "adminCodes1": {"ISO3166_2": "HEL"}, "countryName": "Afghanistan", "fcodeName": "well", "adminName1": "Helmand", "lat": "29.71861", "fcode": "WLL", "description": "Galichah", "xywh": {"x": 664, "y": 1978, "w": 60, "h": 17}}, {"adminCode1": "12", "lng": "12.67985", "geonameId": 2814131, "toponymName": "Waren", "countryId": "2921044", "fcl": "P", "population": 21470, "countryCode": "DE", "name": "Waren", "fclName": "city, village,...", "adminCodes1": {"ISO3166_2": "MV"}, "countryName": "Germany", "fcodeName": "populated place", "adminName1": "Mecklenburg-Vorpommern", "lat": "53.5204", "fcode": "PPL", "description": "Waren", "xywh": {"x": 1187, "y": 2002, "w": 77, "h": 17}}, {"adminCode1": "05", "lng": "68.43769", "geonameId": 1360942, "toponymName": "Sandan", "countryId": "1168579", "fcl": "L", "population": 0, "countryCode": "PK", "name": "Sandan", "fclName": "parks,area, ...", "adminCodes1": {"ISO3166_2": "SD"}, "countryName": "Pakistan", "fcodeName": "area", "adminName1": "Sindh", "lat": "25.82448", "fcode": "AREA", "description": "Sandan", "xywh": {"x": 1760, "y": 2002, "w": 48, "h": 18}}, {"adminCode1": "02", "lng": "64.68451", "geonameId": 1174726, "toponymName": "Korodak", "countryId": "1168579", "fcl": "P", "population": 0, "countryCode": "PK", "name": "Korodak", "fclName": "city, village,...", "adminCodes1": {"ISO3166_2": "BA"}, "countryName": "Pakistan", "fcodeName": "populated place", "adminName1": "Balochistan", "lat": "28.95602", "fcode": "PPL", "description": "Karodak", "xywh": {"x": 2172, "y": 1999, "w": 56, "h": 27}}, {"adminCode1": "11", "lng": "63.05964", "geonameId": 1472269, "toponymName": "Gaz\u0101n", "countryId": "1149361", "fcl": "L", "population": 0, "countryCode": "AF", "name": "Gaz\u0101n", "fclName": "parks,area, ...", "adminCodes1": {"ISO3166_2": "HER"}, "countryName": "Afghanistan", "fcodeName": "locality", "adminName1": "Herat", "lat": "34.08841", "fcode": "LCTY", "description": "Gazan", "xywh": {"x": 769, "y": 2016, "w": 43, "h": 21}}, {"adminCode1": "03", "lng": "50.75527", "geonameId": 69014, "toponymName": "K\u016bh-e Bazman\u012b", "countryId": "130758", "fcl": "T", "population": 0, "countryCode": "IR", "name": "K\u016bh-e Bazman\u012b", "fclName": "mountain,hill,rock,... ", "adminCodes1": {"ISO3166_2": "08"}, "countryName": "Iran", "fcodeName": "mountain", "adminName1": "Chaharmahal and Bakhtiari", "lat": "31.75031", "fcode": "MT", "description": "Bazmani", "xywh": {"x": 822, "y": 2017, "w": 62, "h": 22}},